id,name,region,category,lat,lng,has_image,image_source,image_url,image_thumbnail,image_page,image_title,image_verified,image_verification_score,image_verification_max,image_rejected_count,image_was_new,image_reject_reasons,v1_license,v2_metadata,v3_safe,v4_gps,v5_vision
p0,Preikestolen,Rogaland,viewpoint,58.98645,6.18866,False,,,,,,False,0,5,5,False,"Preikestolen: L1: Unknown or restricted license: ; Forsand, Norway - panoramio (1).jpg: L1: Unknown or restricted license: cc by-sa 3.0; Steep Cliff of Preikstolen - 2013.08 - panoramio.jpg: L1: Unknown or restricted license: cc by 3.0",,,,,
p1,Kjeragbolten,Rogaland,viewpoint,59.03373,6.59327,False,,,,,,False,0,5,5,False,Kjeragbolten: L1: Unknown or restricted license: ; Kjerag Panorama wide (4962881959).jpg: L1: Unknown or restricted license: cc by-sa 2.0; Nesatindane (984 moh). Opp mot.jpg: L1: Unknown or restricted license: cc by-sa 4.0,,,,,
p2,Himakånå,Rogaland,viewpoint,59.35815,5.81145,False,,,,,,False,0,5,0,False,,,,,,
p3,Månafossen,Rogaland,waterfall,58.85784,6.38473,False,,,,,,False,0,5,0,False,,,,,,
p4,Jæren: Orrestranda,Rogaland,beach,58.72458,5.52049,False,,,,,,False,0,5,0,False,,,,,,
p5,Trolltunga,Hardanger,viewpoint,60.13296,6.754,False,,,,,,False,0,5,1,False,Trolltunga: L1: Unknown or restricted license: ,,,,,
p6,Vøringsfossen,Hardanger,waterfall,60.42705,7.25088,False,,,,,,False,0,5,0,False,,,,,,
p7,Låtefossen,Hardanger,waterfall,59.9479,6.58476,False,,,,,,False,0,5,0,False,,,,,,
p8,Steinsdalsfossen,Hardanger,waterfall,60.37079,6.10288,False,,,,,,False,0,5,0,False,,,,,,
p9,Bondhusvatnet,Hardanger,lake,60.08689,6.28667,False,,,,,,False,0,5,0,False,,,,,,
p10,Buarbreen,Hardanger,glacier,60.04456,6.47734,False,,,,,,False,0,5,0,False,,,,,,
p11,Dronningstien,Hardanger,viewpoint,60.36533,6.7049,False,,,,,,False,0,5,0,False,,,,,,
p12,Langfoss,Sunnhordland,waterfall,59.84051,6.34065,False,,,,,,False,0,5,5,False,Langfossen: L1: Unknown or restricted license: ; Langfossen1.jpg: L1: Unknown or restricted license: cc by-sa 2.0; Langfoss waterfall.jpg: L1: Unknown or restricted license: cc by-sa 2.0,,,,,
p13,Åkrasanden,Rogaland,beach,59.2523,5.19716,False,,,,,,False,0,5,0,False,,,,,,
p14,Nærøyfjord – Bakka,Sogn,fjord,60.9163,6.8689,False,,,,,,False,0,5,0,False,,,,,,
p15,Stegastein,Sogn,viewpoint,60.90863,7.21177,False,,,,,,False,0,5,0,False,,,,,,
p16,Brekkefossen,Sogn,waterfall,60.85229,7.09929,False,,,,,,False,0,5,0,False,,,,,,
p17,Nigardsbreen,Sogn,glacier,61.68809,7.19445,False,,,,,,False,0,5,0,False,,,,,,
p18,Feigefossen,Sogn,waterfall,61.3806,7.4424,False,,,,,,False,0,5,0,False,,,,,,
p19,Vettisfossen,Sogn,waterfall,61.37983,7.946,False,,,,,,False,0,5,0,False,,,,,,
p20,Molden,Sogn,viewpoint,61.34515,7.31632,False,,,,,,False,0,5,0,False,,,,,,
p21,Besseggen,Jotunheimen,viewpoint,61.50293,8.72683,False,,,,,,False,0,5,0,False,,,,,,
p22,Galdhøpiggen,Jotunheimen,viewpoint,61.63647,8.31244,False,,,,,,False,0,5,0,False,,,,,,
p23,Gjende – Gjendesheim,Jotunheimen,lake,61.49541,8.80956,False,,,,,,False,0,5,0,False,,,,,,
p24,Knutshøe,Jotunheimen,viewpoint,61.48,8.75492,False,,,,,,False,0,5,0,False,,,,,,
p25,Sognefjellet: Mefjellet,Jotunheimen,scenic_road,61.5586,7.95577,False,,,,,,False,0,5,0,False,,,,,,
p26,Briksdalsbreen,Nordfjord,glacier,61.66405,6.89153,False,,,,,,False,0,5,0,False,,,,,,
p27,Kjenndalsbreen,Nordfjord,glacier,61.72279,7.01439,False,,,,,,False,0,5,0,False,,,,,,
p28,Lovatnet,Nordfjord,lake,61.81854,6.9667,False,,,,,,False,0,5,0,False,,,,,,
p29,Rakssetra,Nordfjord,viewpoint,61.88527,6.77559,False,,,,,,False,0,5,0,False,,,,,,
p30,Skåla,Nordfjord,viewpoint,61.86833,6.96596,False,,,,,,False,0,5,0,False,,,,,,
p31,Vestkapp,Nordfjord,beach,62.1872,5.12885,False,,,,,,False,0,5,0,False,,,,,,
p32,Refviksanden,Nordfjord,beach,62.00366,5.08892,False,,,,,,False,0,5,0,False,,,,,,
p33,Kannesteinen,Nordfjord,beach,61.97038,5.06916,False,,,,,,False,0,5,0,False,,,,,,
p34,Geirangerfjord: Flydalsjuvet,Sunnmøre,fjord,62.08987,7.22315,False,,,,,,False,0,5,0,False,,,,,,
p35,Dalsnibba,Sunnmøre,viewpoint,62.04785,7.27131,False,,,,,,False,0,5,0,False,,,,,,
p36,Sieben Schwestern,Sunnmøre,waterfall,62.10739,7.09376,False,,,,,,False,0,5,5,False,"Geiranger-Drone-20160725-16.jpg: L1: Unknown or restricted license: cc by 2.0; The Seven Sisters - De syv søstre (23537124219).jpg: L1: Unknown or restricted license: no restrictions; Seven Sisters Waterfall - Geirangerfjord, Norway - panoramio.jpg: L1: Unknown or restricted license: cc by-sa 3.0",,,,,
p37,Trollstigen Aussichtspunkt,Romsdal,scenic_road,62.455,7.67229,False,,,,,,False,0,5,5,False,"Trollstigvegen: L1: Unknown or restricted license: ; Untere Aussichtsplattform der Trollstigen.JPG: L1: Unknown or restricted license: cc by-sa 4.0; Trollstigen, Norway - panoramio.jpg: L1: Unknown or restricted license: cc by-sa 3.0",,,,,
p38,Gudbrandsjuvet,Sunnmøre,geology,62.33047,7.46983,False,,,,,,False,0,5,0,False,,,,,,
p39,Romsdalseggen,Romsdal,viewpoint,62.56107,7.71077,False,,,,,,False,0,5,0,False,,,,,,
p40,Rampestreken,Romsdal,viewpoint,62.56077,7.7126,False,,,,,,False,0,5,0,False,,,,,,
p41,Trollveggen,Romsdal,viewpoint,62.4896,7.76011,False,,,,,,False,0,5,0,False,,,,,,
p42,Mardalsfossen,Romsdal,waterfall,62.47149,8.11992,False,,,,,,False,0,5,0,False,,,,,,
p43,Atlanterhavsvegen: Eldhusøya,Nordmøre,scenic_road,63.02125,7.37189,False,,,,,,False,0,5,0,False,,,,,,
p44,Innerdalen,Nordmøre,lake,62.7219,8.77643,False,,,,,,False,0,5,0,False,,,,,,
p45,Snøhetta-Aussichtspunkt,Dovrefjell,wilderness,62.22386,9.49016,False,,,,,,False,0,5,0,False,,,,,,
p46,Rondane: Sohlbergplassen,Rondane,wilderness,61.88045,10.18487,False,,,,,,False,0,5,0,False,,,,,,
p47,Rondvassbu,Rondane,wilderness,61.88043,9.79598,False,,,,,,False,0,5,0,False,,,,,,
p48,Femundsmarka: Elgå,Innlandet,wilderness,62.16343,11.94461,False,,,,,,False,0,5,0,False,,,,,,
p49,Gaustatoppen,Telemark,viewpoint,59.85421,8.64926,False,,,,,,False,0,5,0,False,,,,,,
p50,Rjukanfossen,Telemark,waterfall,59.86644,8.47897,False,,,,,,False,0,5,0,False,,,,,,
p51,Husedalen,Hardanger,waterfall,60.3634,6.74379,False,,,,,,False,0,5,0,False,,,,,,
p52,Kviteseid: Hamaren Tretoppvei,Telemark,viewpoint,59.18243,8.08502,False,,,,,,False,0,5,0,False,,,,,,
p53,Verdens Ende,Vestfold,beach,59.05459,10.40564,False,,,,,,False,0,5,0,False,,,,,,
p54,Mølen,Vestfold,beach,58.97289,9.82253,False,,,,,,False,0,5,0,False,,,,,,
p55,Hvaler: Storesand,Østfold,beach,59.02488,11.01779,False,,,,,,False,0,5,0,False,,,,,,
p56,Kjerkeberget Nordmarka,Oslo,viewpoint,60.13528,10.61861,False,,,,,,False,0,5,0,False,,,,,,
p57,Østmarka: Nøklevann,Oslo,wilderness,59.88341,10.87824,False,,,,,,False,0,5,0,False,,,,,,
p58,Kolsåstoppen,Akershus,viewpoint,59.92977,10.51661,False,,,,,,False,0,5,0,False,,,,,,
p59,Torghatten,Helgeland,viewpoint,65.39834,12.09115,False,,,,,,False,0,5,1,False,Torghatten: L1: Unknown or restricted license: ,,,,,
p60,De syv søstre – Botnkrona,Helgeland,viewpoint,65.96168,12.62816,False,,,,,,False,0,5,0,False,,,,,,
p61,Vega: Eidemsliene,Helgeland,beach,65.61755,11.80893,False,,,,,,False,0,5,0,False,,,,,,
p62,Svartisen: Austerdalsisen,Helgeland,glacier,66.52099,14.10201,False,,,,,,False,0,5,0,False,,,,,,
p63,Saltstraumen,Nordland,beach,67.23214,14.61005,False,,,,,,False,0,5,0,False,,,,,,
p64,Mørsvikbotn: Rago Nationalpark,Nordland,wilderness,67.45258,15.77131,False,,,,,,False,0,5,0,False,,,,,,
p65,Mannen Hamarøy,Nordland,viewpoint,68.08072,15.40506,False,,,,,,False,0,5,0,False,,,,,,
p66,Reinebringen,Lofoten,viewpoint,67.92784,13.0714,False,,,,,,False,0,5,0,False,,,,,,
p67,Kvalvika Beach,Lofoten,beach,68.07695,13.09629,False,,,,,,False,0,5,0,False,,,,,,
p68,Ryten,Lofoten,viewpoint,68.08933,13.09291,False,,,,,,False,0,5,0,False,,,,,,
p69,Hauklandstranda,Lofoten,beach,68.19799,13.52919,False,,,,,,False,0,5,0,False,,,,,,
p70,Uttakleiv,Lofoten,beach,68.21368,13.50829,False,,,,,,False,0,5,0,False,,,,,,
p71,Offersøykammen,Lofoten,viewpoint,68.16126,13.5019,False,,,,,,False,0,5,0,False,,,,,,
p72,Mannen bei Haukland,Lofoten,viewpoint,68.20368,13.52024,False,,,,,,False,0,5,0,False,,,,,,
p73,Svolværgeita,Lofoten,viewpoint,68.24623,14.58847,False,,,,,,False,0,5,0,False,,,,,,
p74,Djevelporten,Lofoten,viewpoint,68.25084,14.59798,False,,,,,,False,0,5,0,False,,,,,,
p75,Trollfjord,Lofoten/Vesterålen,fjord,68.36399,14.96083,False,,,,,,False,0,5,0,False,,,,,,
p76,Måtinden,Vesterålen,viewpoint,69.24251,15.86515,False,,,,,,False,0,5,0,False,,,,,,
p77,Bleikstranda,Vesterålen,beach,69.27195,15.956,False,,,,,,False,0,5,0,False,,,,,,
p78,Dronningruta,Vesterålen,viewpoint,69.01848,15.11212,False,,,,,,False,0,5,0,False,,,,,,
p79,Møysalen Nationalpark,Vesterålen,wilderness,68.52606,15.45215,False,,,,,,False,0,5,0,False,,,,,,
p80,Tungeneset,Senja,viewpoint,69.48695,17.33304,False,,,,,,False,0,5,0,False,,,,,,
p81,Bergsbotn,Senja,viewpoint,69.42307,17.50384,False,,,,,,False,0,5,0,False,,,,,,
p82,Segla,Senja,viewpoint,69.50737,17.59572,False,,,,,,False,0,5,0,False,,,,,,
p83,Hesten,Senja,viewpoint,69.51387,17.58474,False,,,,,,False,0,5,5,False,"Keipen and Grytetippen from Hesten in Senja, Troms og Finnmark, Norway, 2022 August.jpg: L1: Unknown or restricted license: cc by-sa 4.0; Breidtinden from Hesten in Senja, Troms og Finnmark, Norway, 2022 August.jpg: L1: Unknown or restricted license: cc by-sa 4.0; Coastal cliffside of Hesten in Senja, Troms og Finnmark, Norway, 2022 August.jpg: L1: Unknown or restricted license: cc by-sa 4.0",,,,,
p84,Ersfjordstranda Senja,Senja,beach,69.47882,17.39482,False,,,,,,False,0,5,5,False,"Ersfjorden-2011.jpg: L1: Unknown or restricted license: cc by-sa 3.0; Fv862 road in Ersfjord, Senja, Troms, Norway, 2014 August.jpg: L1: Unknown or restricted license: cc by-sa 4.0; Seaweed on a beach in Senja, Troms, Norway, 2014 August.jpg: L1: Unknown or restricted license: cc by-sa 4.0",,,,,
p85,Sommarøy,Troms,beach,69.63352,18.0073,False,,,,,,False,0,5,0,False,,,,,,
p86,Tromsdalstinden,Troms,viewpoint,69.60714,19.14581,False,,,,,,False,0,5,0,False,,,,,,
p87,Sherpatrappa Tromsø,Troms,viewpoint,69.63687,18.99964,False,,,,,,False,0,5,0,False,,,,,,
p88,Blåisvatnet,Lyngen,lake,69.72904,20.034,False,,,,,,False,0,5,0,False,,,,,,
p89,Gorsa Bridge,Troms,geology,69.40083,20.98167,False,,,,,,False,0,5,0,False,,,,,,
p90,Reisadalen: Imofossen,Troms,waterfall,69.30056,21.99976,False,,,,,,False,0,5,0,False,,,,,,
p91,Alta Canyon – Sautso,Finnmark,geology,69.75065,23.74826,False,,,,,,False,0,5,0,False,,,,,,
p92,Nordkap-Klippe,Finnmark,beach,71.16995,25.78589,False,,,,,,False,0,5,0,False,,,,,,
p93,Kirkeporten,Finnmark,viewpoint,71.11333,25.80206,False,,,,,,False,0,5,0,False,,,,,,
p94,Knivskjellodden,Finnmark,viewpoint,71.18499,25.6765,False,,,,,,False,0,5,0,False,,,,,,
p95,Hamningberg,Varanger,beach,70.5402,30.61626,False,,,,,,False,0,5,0,False,,,,,,
p96,Ekkerøy,Varanger,beach,70.07626,30.10224,False,,,,,,False,0,5,0,False,,,,,,
p97,Hornøya,Varanger,beach,70.38695,31.15864,False,,,,,,False,0,5,0,False,,,,,,
p98,Stabbursdalen Nationalpark,Finnmark,wilderness,70.16069,24.93689,False,,,,,,False,0,5,0,False,,,,,,
p99,Øvre Pasvik: Nyrud,Finnmark,wilderness,69.84576,29.37514,False,,,,,,False,0,5,0,False,,,,,,
p100,Kjelfossen,Vestland,waterfall,60.87414,6.85707,False,,,,,,False,0,5,0,False,,,,,,
p101,Rjukandefoss,Buskerud,waterfall,60.87535,8.46416,False,,,,,,False,0,5,0,False,,,,,,
p102,Sarpefossen,Østfold,waterfall,59.27622,11.13101,False,,,,,,False,0,5,0,False,,,,,,
p103,Tyssestrengene,Vestland,waterfall,60.13663,6.75425,False,,,,,,False,0,5,0,False,,,,,,
p104,Tvindefossen,Vestland,waterfall,60.7261,6.48578,False,,,,,,False,0,5,0,False,,,,,,
p105,Skrikjofossen,Vestland,waterfall,60.30466,6.69178,False,,,,,,False,0,5,1,False,Skrikjofossen: L1: Unknown or restricted license: ,,,,,
p106,Hellefoss,Oslo,waterfall,60.05672,10.63591,False,,,,,,False,0,5,0,False,,,,,,
p107,Kvernhusfossen,Oslo,waterfall,60.12341,10.60837,False,,,,,,False,0,5,0,False,,,,,,
p108,Trælefossen,Agder,waterfall,58.24529,7.62284,False,,,,,,False,0,5,0,False,,,,,,
p109,Nykkfossen,Agder,waterfall,58.26512,7.5896,False,,,,,,False,0,5,0,False,,,,,,
p110,Lauvåfalla,Innlandet,waterfall,61.08001,11.16401,False,,,,,,False,0,5,0,False,,,,,,
p111,Ytste Mardalsfossen,Møre og Romsdal,waterfall,62.48271,8.10894,False,,,,,,False,0,5,0,False,,,,,,
p112,Brudesløret,Møre og Romsdal,waterfall,62.74777,7.75457,False,,,,,,False,0,5,0,False,,,,,,
p113,Fallfossen,Møre og Romsdal,waterfall,62.67087,7.87993,False,,,,,,False,0,5,0,False,,,,,,
p114,Tverrelvfossen,Møre og Romsdal,waterfall,62.73204,7.52377,False,,,,,,False,0,5,0,False,,,,,,
p115,Tollåsfossen,Møre og Romsdal,waterfall,62.75402,7.54417,False,,,,,,False,0,5,0,False,,,,,,
p116,Fossan,Møre og Romsdal,waterfall,62.66065,8.17954,False,,,,,,False,0,5,0,False,,,,,,
p117,Drivandfossen,Møre og Romsdal,waterfall,62.68469,7.99338,False,,,,,,False,0,5,0,False,,,,,,
p118,Grøvelfossen,Møre og Romsdal,waterfall,62.69023,7.87913,False,,,,,,False,0,5,0,False,,,,,,
p119,Sagfossen,Møre og Romsdal,waterfall,62.76637,7.51978,False,,,,,,False,0,5,0,False,,,,,,
p120,Stampefoss,Agder,waterfall,58.44443,8.68946,False,,,,,,False,0,5,0,False,,,,,,
p121,Kalvehagfossen,Agder,waterfall,58.40521,8.64482,False,,,,,,False,0,5,5,False,Nøgne Ø - Det kompromissløse bryggeri.jpg: L1: Unknown or restricted license: cc by 2.0; Nøgne Ø - Det kompromissløse bryggeri (6917777960).jpg: L1: Unknown or restricted license: cc by 2.0; Nøgne Ø brewery building.jpg: L1: Unknown or restricted license: cc by-sa 4.0,,,,,
p122,Torgunrudkastet,Akershus,waterfall,60.53406,11.16815,False,,,,,,False,0,5,0,False,,,,,,
p123,Skulbørstadfoss,Trøndelag,waterfall,63.49619,10.9562,False,,,,,,False,0,5,0,False,,,,,,
p124,Storfossen,Trøndelag,waterfall,63.3607,11.09977,False,,,,,,False,0,5,0,False,,,,,,
p125,Gardhammarfossen,Buskerud,waterfall,60.2068,10.02477,False,,,,,,False,0,5,0,False,,,,,,
p126,Angerfoss,Buskerud,waterfall,60.41149,10.15628,False,,,,,,False,0,5,0,False,,,,,,
p127,Ulvefoss,Buskerud,waterfall,60.34279,9.91079,False,,,,,,False,0,5,0,False,,,,,,
p128,Skuggehølfossen,Buskerud,waterfall,60.28585,9.91248,False,,,,,,False,0,5,0,False,,,,,,
p129,Kvernhusfoss,Buskerud,waterfall,60.32915,9.87381,False,,,,,,False,0,5,0,False,,,,,,
p130,Rindefossen,Buskerud,waterfall,60.43611,10.09842,False,,,,,,False,0,5,0,False,,,,,,
p131,Viulfoss,Buskerud,waterfall,60.19484,10.32263,False,,,,,,False,0,5,0,False,,,,,,
p132,Migaren,Buskerud,waterfall,60.08994,10.36352,False,,,,,,False,0,5,0,False,,,,,,
p133,Kjerkestrupen,Innlandet,waterfall,60.94993,12.11515,False,,,,,,False,0,5,0,False,,,,,,
p134,Gælenevjufossen,Innlandet,waterfall,60.97821,12.01085,False,,,,,,False,0,5,0,False,,,,,,
p135,Storstyggen,Innlandet,waterfall,61.02951,12.04632,False,,,,,,False,0,5,0,False,,,,,,
p136,Veslestyggen,Innlandet,waterfall,61.02037,12.04997,False,,,,,,False,0,5,0,False,,,,,,
p137,Korpreiret,Innlandet,waterfall,60.95528,11.38476,False,,,,,,False,0,5,1,False,Korpreiret: L1: Unknown or restricted license: ,,,,,
p138,Høljefallet,Innlandet,waterfall,61.02754,12.29037,False,,,,,,False,0,5,0,False,,,,,,
p139,Reipefossen,Vestland,waterfall,61.28865,6.98604,False,,,,,,False,0,5,0,False,,,,,,
p140,Fannaråkfossen,Vestland,waterfall,61.50519,7.93061,False,,,,,,False,0,5,0,False,,,,,,
p141,Ryfossen,Vestland,waterfall,61.45115,7.27395,False,,,,,,False,0,5,0,False,,,,,,
p142,Hesjateigfossane,Vestland,waterfall,61.40241,7.10618,False,,,,,,False,0,5,0,False,,,,,,
p143,Spildrefossen,Vestland,waterfall,61.34037,7.28631,False,,,,,,False,0,5,0,False,,,,,,
p144,Morfossen,Trøndelag,waterfall,63.17979,9.99865,False,,,,,,False,0,5,0,False,,,,,,
p145,Kaldvellfossen,Trøndelag,waterfall,63.2082,10.41421,False,,,,,,False,0,5,0,False,,,,,,
p146,Gaulfossen,Trøndelag,waterfall,63.10816,10.22942,False,,,,,,False,0,5,0,False,,,,,,
p147,Storfallet,Innlandet,waterfall,61.51329,12.47761,False,,,,,,False,0,5,0,False,,,,,,
p148,Sjøfossen,Innlandet,waterfall,61.16166,12.34704,False,,,,,,False,0,5,0,False,,,,,,
p149,Selbufossen,Trøndelag,waterfall,63.38974,11.83898,False,,,,,,False,0,5,0,False,,,,,,
p150,Kvelvfossen,Trøndelag,waterfall,63.43766,11.61631,False,,,,,,False,0,5,0,False,,,,,,
p151,Kråkfossen,Akershus,waterfall,60.13195,11.0797,False,,,,,,False,0,5,0,False,,,,,,
p152,Bjørgafossen,Trøndelag,waterfall,63.24397,10.76073,False,,,,,,False,0,5,0,False,,,,,,
p153,Høgfossen,Trøndelag,waterfall,63.24838,10.69306,False,,,,,,False,0,5,0,False,,,,,,
p154,Kvernfossen,Agder,waterfall,58.68743,8.90328,False,,,,,,False,0,5,0,False,,,,,,
p155,Minnestufossen,Akershus,waterfall,60.29977,10.7428,False,,,,,,False,0,5,0,False,,,,,,
p156,Ljosafossen,Rogaland,waterfall,59.59985,6.369,False,,,,,,False,0,5,0,False,,,,,,
p157,Malmeifossen,Rogaland,waterfall,59.58716,6.34063,False,,,,,,False,0,5,0,False,,,,,,
p158,Skarfoss,Rogaland,waterfall,59.64628,6.53781,False,,,,,,False,0,5,0,False,,,,,,
p159,Urfossen,Agder,waterfall,58.30136,7.96676,False,,,,,,False,0,5,0,False,,,,,,
p160,Ikkonfoss,Agder,waterfall,58.29663,7.97821,False,,,,,,False,0,5,0,False,,,,,,
p161,Steinsfossen,Agder,waterfall,58.30105,7.96632,False,,,,,,False,0,5,0,False,,,,,,
p162,Gysfossen,Agder,waterfall,58.30318,7.20823,False,,,,,,False,0,5,0,False,,,,,,
p163,Fotlandsfossen,Rogaland,waterfall,58.71562,5.70771,False,,,,,,False,0,5,0,False,,,,,,
p164,Granefossane,Rogaland,waterfall,59.15388,6.39655,False,,,,,,False,0,5,0,False,,,,,,
p165,Sendingfossen,Rogaland,waterfall,59.15073,6.37915,False,,,,,,False,0,5,0,False,,,,,,
p166,Glommedalsfossen,Rogaland,waterfall,59.29635,6.63201,False,,,,,,False,0,5,0,False,,,,,,
p167,Eigeskogfossen,Rogaland,waterfall,58.85328,6.36978,False,,,,,,False,0,5,0,False,,,,,,
p168,Svendsbøfossen,Rogaland,waterfall,59.54143,5.5738,False,,,,,,False,0,5,0,False,,,,,,
p169,Prestfossen,Akershus,waterfall,60.10079,10.946,False,,,,,,False,0,5,0,False,,,,,,
p275,Tussen,Møre og Romsdal,viewpoint,62.78179,7.25159,False,,,,,,False,0,5,0,False,,,,,,
p276,Lufthavnvakta,Møre og Romsdal,viewpoint,62.74602,7.25883,False,,,,,,False,0,5,0,False,,,,,,
p277,Utsikten,Akershus,viewpoint,60.20055,11.21732,False,,,,,,False,0,5,0,False,,,,,,
p278,Ringknuten,Agder,viewpoint,58.15937,8.04171,False,,,,,,False,0,5,0,False,,,,,,
p279,Holmenkollen,Agder,viewpoint,58.17877,8.00187,False,,,,,,False,0,5,0,False,,,,,,
p280,Kanonstilling Krageviga,Agder,viewpoint,58.0871,8.00722,False,,,,,,False,0,5,0,False,,,,,,
p281,Sauetoppen,Agder,viewpoint,58.09108,8.00086,False,,,,,,False,0,5,0,False,,,,,,
p282,Varen,Agder,viewpoint,58.22731,8.08752,False,,,,,,False,0,5,0,False,,,,,,
p283,Sotåsen,Agder,viewpoint,58.12477,8.13344,False,,,,,,False,0,5,0,False,,,,,,
p284,Rønnsåsen,Vestfold,viewpoint,59.15445,10.30776,False,,,,,,False,0,5,0,False,,,,,,
p285,Storåstoppen,Vestfold,viewpoint,59.22532,10.22548,False,,,,,,False,0,5,0,False,,,,,,
p286,Mokollen,Vestfold,viewpoint,59.14109,10.21297,False,,,,,,False,0,5,0,False,,,,,,
p287,Sjuberget,Vestfold,viewpoint,59.30982,10.15288,False,,,,,,False,0,5,0,False,,,,,,
p288,Vetan,Vestfold,viewpoint,59.29737,10.16734,False,,,,,,False,0,5,0,False,,,,,,
p289,Kringlefjell,Vestfold,viewpoint,59.36081,10.10019,False,,,,,,False,0,5,0,False,,,,,,
p290,Svartaberget,Vestland,viewpoint,60.67878,6.4329,False,,,,,,False,0,5,0,False,,,,,,
p291,Bordalsgjel Schlucht,Vestland,viewpoint,60.61288,6.42323,False,,,,,,False,0,5,0,False,,,,,,
p292,Orsetra,Møre og Romsdal,viewpoint,63.04664,7.80999,False,,,,,,False,0,5,0,False,,,,,,
p293,Lågfjellet,Møre og Romsdal,viewpoint,63.04542,7.74043,False,,,,,,False,0,5,0,False,,,,,,
p294,Bjønnahaugen,Møre og Romsdal,viewpoint,63.11242,7.7486,False,,,,,,False,0,5,0,False,,,,,,
p295,Lysebotn-Aussichtspunkt,Rogaland,viewpoint,59.04683,6.65212,False,,,,,,False,0,5,0,False,,,,,,
p296,Skåkåsstenen,Trøndelag,viewpoint,62.54883,11.50843,False,,,,,,False,0,5,0,False,,,,,,
p297,Skallhaugen,Trøndelag,viewpoint,62.64166,11.85397,False,,,,,,False,0,5,0,False,,,,,,
p298,Ulvstugguhaugen,Trøndelag,viewpoint,62.57209,11.3979,False,,,,,,False,0,5,0,False,,,,,,
p299,Slegghaugan,Trøndelag,viewpoint,62.5759,11.39533,False,,,,,,False,0,5,0,False,,,,,,
p300,Storvarden,Trøndelag,viewpoint,62.53278,11.41435,False,,,,,,False,0,5,0,False,,,,,,
p301,Stor-Gråberget,Trøndelag,viewpoint,62.54603,11.48168,False,,,,,,False,0,5,0,False,,,,,,
p302,Skreikampen,Akershus,viewpoint,60.56779,11.15036,False,,,,,,False,0,5,0,False,,,,,,
p303,Branntårnet,Akershus,viewpoint,60.37398,11.15747,False,,,,,,False,0,5,0,False,,,,,,
p304,Trollåsen,Akershus,viewpoint,59.89873,11.10474,False,,,,,,False,0,5,0,False,,,,,,
p305,Videfossen,Vestland,viewpoint,61.94097,7.26968,False,,,,,,False,0,5,0,False,,,,,,
p306,Øvstefoss,Vestland,viewpoint,61.93693,7.26039,False,,,,,,False,0,5,0,False,,,,,,
p307,Øvstedalsfossen,Vestland,viewpoint,61.93617,7.25946,False,,,,,,False,0,5,0,False,,,,,,
p308,Langhammarkvilet,Vestland,viewpoint,61.92266,7.08566,False,,,,,,False,0,5,0,False,,,,,,
p309,Lundkvassberget,Innlandet,viewpoint,61.29283,12.43037,False,,,,,,False,0,5,0,False,,,,,,
p310,Vardåsen Tårn,Østfold,viewpoint,59.64226,11.18466,False,,,,,,False,0,5,0,False,,,,,,
p311,Kristianvarden,Innlandet,viewpoint,61.38074,10.02812,False,,,,,,False,0,5,0,False,,,,,,
p312,Plane spotter sight Bunkeren,Akershus,viewpoint,60.19022,11.07158,False,,,,,,False,0,5,5,False,Royal Aircraft Factory B.E.2e ‘131’ (49522945977).jpg: L1: Unknown or restricted license: cc by-sa 2.0; WW1 Aircraft parts - Oslo Gardermoen. 26-5-19 (49527150987).jpg: L1: Unknown or restricted license: cc by-sa 2.0; Saab S.91B-2 Safir ‘329’ (49526667493).jpg: L1: Unknown or restricted license: cc by-sa 2.0,,,,,
p313,Planespotters site,Akershus,viewpoint,60.17569,11.10158,False,,,,,,False,0,5,0,False,,,,,,
p314,Nebba,Møre og Romsdal,viewpoint,62.56363,7.69323,False,,,,,,False,0,5,0,False,,,,,,
p315,Sjøsanden,Agder,beach,58.01955,7.44674,False,,,,,,False,0,5,0,False,,,,,,
p316,Skiphellebukta badeplass,Akershus,beach,59.6384,10.64247,False,,,,,,False,0,5,0,False,,,,,,
p317,Flømolostrand,Møre og Romsdal,beach,62.40211,5.84963,False,,,,,,False,0,5,0,False,,,,,,
p318,Sørenga Sjøbad,Oslo,beach,59.90133,10.7507,False,,,,,,False,0,5,0,False,,,,,,
p319,Lutvann badeplass,Oslo,beach,59.91768,10.8821,False,,,,,,False,0,5,0,False,,,,,,
p320,Sundveien badeplass,Oslo,beach,59.86564,10.76332,False,,,,,,False,0,5,0,False,,,,,,
p321,Buktafjæra,Trøndelag,beach,63.42497,10.14182,False,,,,,,False,0,5,0,False,,,,,,
p322,Hansbakkfjæra,Trøndelag,beach,63.43111,10.54215,False,,,,,,False,0,5,0,False,,,,,,
p323,Grilstadstranda,Trøndelag,beach,63.43624,10.5129,False,,,,,,False,0,5,0,False,,,,,,
p324,Fagerheimbukta,Trøndelag,beach,63.44828,10.46642,False,,,,,,False,0,5,0,False,,,,,,
p325,Vollane,Vestland,beach,60.44129,5.31533,False,,,,,,False,0,5,0,False,,,,,,
p326,Møhlenpris badeplass,Vestland,beach,60.38198,5.32562,False,,,,,,False,0,5,0,False,,,,,,
p327,Skjoldbukta,Vestland,beach,60.31232,5.32921,False,,,,,,False,0,5,0,False,,,,,,
p328,Nygardsvika friluftsområde,Vestland,beach,60.35761,5.4613,False,,,,,,False,0,5,5,False,Haukeland stasjon.JPG: L1: Unknown or restricted license: cc by-sa 3.0; Haukeland IMG 0608.jpg: L1: Unknown or restricted license: cc by-sa 2.0; Resized 20241208 113105 17340063613381.jpg: L1: Unknown or restricted license: cc by-sa 4.0,,,,,
p329,Åros stranda,Agder,beach,58.07409,7.82068,False,,,,,,False,0,5,0,False,,,,,,
p330,Høllesanden,Agder,beach,58.07624,7.81284,False,,,,,,False,0,5,0,False,,,,,,
p331,Torvesanden,Agder,beach,58.07837,7.78799,False,,,,,,False,0,5,0,False,,,,,,
p332,Storøyspissen,Akershus,beach,59.88738,10.59634,False,,,,,,False,0,5,0,False,,,,,,
p333,Rolfstangen badestrand,Akershus,beach,59.89052,10.634,False,,,,,,False,0,5,0,False,,,,,,
p334,Pelvikodden Badeplass,Akershus,beach,59.8882,10.63401,False,,,,,,False,0,5,0,False,,,,,,
p335,Bakkesanden,Møre og Romsdal,beach,62.80626,7.83072,False,,,,,,False,0,5,0,False,,,,,,
p336,Munkebukta,Østfold,beach,59.12702,11.0841,False,,,,,,False,0,5,0,False,,,,,,
p337,Vispen,Østfold,beach,59.21531,11.06744,False,,,,,,False,0,5,0,False,,,,,,
p338,Rostadneset,Østfold,beach,59.29665,10.99546,False,,,,,,False,0,5,0,False,,,,,,
p339,Glombo brygge,Østfold,beach,59.20718,10.90634,False,,,,,,False,0,5,0,False,,,,,,
p340,Nordkolvika,Møre og Romsdal,beach,63.12944,7.8509,False,,,,,,False,0,5,0,False,,,,,,
p341,Skjerva,Møre og Romsdal,beach,63.10171,7.73042,False,,,,,,False,0,5,0,False,,,,,,
p342,Kremmerodden,Innlandet,beach,60.94873,10.64227,False,,,,,,False,0,5,0,False,,,,,,
p343,Borrestranda,Vestfold,beach,59.37714,10.46742,False,,,,,,False,0,5,5,False,Borreparken 20100327-4.JPG: L1: Unknown or restricted license: cc by-sa 3.0; Borreparken 20100327-5.JPG: L1: Unknown or restricted license: cc by-sa 3.0; Midgard historisk senter 20100327-1.JPG: L1: Unknown or restricted license: cc by-sa 3.0,,,,,
p344,Bastøybukta,Vestfold,beach,59.3863,10.52087,False,,,,,,False,0,5,0,False,,,,,,
p370,Botanisk hage,Oslo,culture,59.91873,10.7705,False,,,,,,False,0,5,0,False,,,,,,
p371,Fredriksten festning,Østfold,culture,59.1199,11.39686,False,,,,,,False,0,5,0,False,,,,,,
p372,Lillesand Flaksbandsbanen,Agder,culture,58.29171,8.28469,False,,,,,,False,0,5,0,False,,,,,,
p373,Refsdal Kraftstasjon 1913,Vestland,culture,61.02746,6.57552,False,,,,,,False,0,5,0,False,,,,,,
p374,Steinvikholm slott,Trøndelag,culture,63.5437,10.81325,False,,,,,,False,0,5,0,False,,,,,,
p375,Arboretet på Milde,Vestland,culture,60.25659,5.27465,False,,,,,,False,0,5,0,False,,,,,,
p376,Borrehaugene,Vestfold,culture,59.3834,10.47133,False,,,,,,False,0,5,0,False,,,,,,
p377,Gardnos Crater,Buskerud,culture,60.63391,9.00807,False,,,,,,False,0,5,0,False,,,,,,
p378,Dalen hotel,Telemark,culture,59.44365,8.01133,False,,,,,,False,0,5,0,False,,,,,,
p379,Tautra kloster,Trøndelag,culture,63.58418,10.62202,False,,,,,,False,0,5,0,False,,,,,,
p380,Muséhagen,Vestland,culture,60.38731,5.32091,False,,,,,,False,0,5,0,False,,,,,,
p381,Stoplesteinan,Rogaland,culture,58.43961,6.01437,False,,,,,,False,0,5,0,False,,,,,,
p382,Stavanger Botanisk Hage,Rogaland,culture,58.93998,5.70241,False,,,,,,False,0,5,0,False,,,,,,
p383,Kviteseid Bygdetun,Telemark,culture,59.35511,8.5218,False,,,,,,False,0,5,0,False,,,,,,
p384,Kvitskriuprestan,Innlandet,culture,61.81142,9.60531,False,,,,,,False,0,5,0,False,,,,,,
p385,Svinviks arboretum,Møre og Romsdal,culture,62.85252,8.63063,False,,,,,,False,0,5,0,False,,,,,,
p386,Odden Hagen,Agder,culture,58.58456,7.79528,False,,,,,,False,0,5,5,False,NMFF 002574 30.jpg: L1: Unknown or restricted license: no restrictions; First showcase of the systematic collection.jpg: L1: Unknown or restricted license: cc by-sa 4.0; A showcase about the applications of quartz.jpg: L1: Unknown or restricted license: cc by-sa 4.0,,,,,
p387,Kneiken felleshage,Trøndelag,culture,63.42661,10.40558,False,,,,,,False,0,5,0,False,,,,,,
p388,Brundalen Borettslag Parsellhager,Trøndelag,culture,63.41543,10.48398,False,,,,,,False,0,5,0,False,,,,,,
p389,Posebyen,Agder,culture,58.14913,7.99824,False,,,,,,False,0,5,0,False,,,,,,
p390,Mølen gravrøyser,Vestfold,culture,58.9702,9.83016,False,,,,,,False,0,5,0,False,,,,,,
p391,Rosariet,Vestland,culture,60.25241,5.27032,False,,,,,,False,0,5,0,False,,,,,,
p392,Urtehagen,Rogaland,culture,58.94002,5.70202,False,,,,,,False,0,5,0,False,,,,,,
p393,Staudehagen,Rogaland,culture,58.94032,5.70209,False,,,,,,False,0,5,0,False,,,,,,
p394,Huskebråtan,Akershus,picnic,60.31468,11.26415,False,,,,,,False,0,5,0,False,,,,,,
p395,Kosevika friområde,Agder,picnic,58.07598,7.84704,False,,,,,,False,0,5,0,False,,,,,,
p396,Holemark,Vestland,picnic,60.64518,6.05729,False,,,,,,False,0,5,0,False,,,,,,
p397,Lerøys plass,Møre og Romsdal,picnic,63.11677,7.79744,False,,,,,,False,0,5,0,False,,,,,,
p398,Kvernbenken,Møre og Romsdal,picnic,63.1165,7.80618,False,,,,,,False,0,5,0,False,,,,,,
p399,Lensmannsvangen,Akershus,picnic,60.36041,11.15219,False,,,,,,False,0,5,0,False,,,,,,
p400,Bokkedalen,Akershus,picnic,60.30579,11.3462,False,,,,,,False,0,5,0,False,,,,,,
p401,Mosaviki,Vestland,picnic,61.29474,7.25824,False,,,,,,False,0,5,0,False,,,,,,
p402,Øvre Teiatjønna,Trøndelag,picnic,63.19946,10.50572,False,,,,,,False,0,5,0,False,,,,,,
p403,Haraldsvangen,Innlandet,picnic,61.13093,10.86989,False,,,,,,False,0,5,0,False,,,,,,
p404,Paradis,Innlandet,picnic,61.33283,10.06854,False,,,,,,False,0,5,0,False,,,,,,
p405,Tolvstein syd,Akershus,picnic,60.10997,11.33428,False,,,,,,False,0,5,0,False,,,,,,
p406,Randsetfjellet,Møre og Romsdal,picnic,62.63116,7.44019,False,,,,,,False,0,5,0,False,,,,,,
p407,Krigsvollbekken,Trøndelag,picnic,62.73899,10.65592,False,,,,,,False,0,5,0,False,,,,,,
p408,Synnerdalen,Trøndelag,picnic,62.71567,10.72227,False,,,,,,False,0,5,0,False,,,,,,
p409,Nessmoen,Trøndelag,picnic,62.94934,10.76277,False,,,,,,False,0,5,0,False,,,,,,
p410,Carl Fredrik Hellevang-Larsens plass,Møre og Romsdal,picnic,63.05288,7.63227,False,,,,,,False,0,5,0,False,,,,,,
p411,Tvedestrand,Agder,picnic,58.6265,8.9246,False,,,,,,False,0,5,0,False,,,,,,
p412,Maryland,Rogaland,picnic,59.70753,6.53848,False,,,,,,False,0,5,0,False,,,,,,
p413,Midtfjordsplassen,Agder,picnic,58.06424,7.10573,False,,,,,,False,0,5,0,False,,,,,,
p414,Varmestue,Innlandet,picnic,61.47024,10.13751,False,,,,,,False,0,5,0,False,,,,,,
p415,Bjøråa,Innlandet,picnic,61.6676,10.88512,False,,,,,,False,0,5,0,False,,,,,,
p416,Lyngnes,Agder,picnic,58.80739,7.79034,False,,,,,,False,0,5,0,False,,,,,,
p417,Steinbord,Vestland,picnic,59.87318,6.65365,False,,,,,,False,0,5,0,False,,,,,,
p418,Osterfloten,Rogaland,picnic,59.41373,6.11728,False,,,,,,False,0,5,0,False,,,,,,
p419,Slettafossen,Møre og Romsdal,waterfall,62.32452,8.07783,False,,,,,,False,0,5,0,False,,,,,,
p420,Florsfossen,Vestland,waterfall,60.79257,5.90522,False,,,,,,False,0,5,0,False,,,,,,
p421,Gammelfossen,Møre og Romsdal,waterfall,63.04919,7.61481,False,,,,,,False,0,5,1,False,Averøy kommunehus.jpg: L1: Unknown or restricted license: cc by-sa 4.0,,,,,
p422,Bekkefossen,Vestland,waterfall,61.07742,7.97761,False,,,,,,False,0,5,0,False,,,,,,
p423,Bergsfossen,Vestland,waterfall,60.55894,5.99335,False,,,,,,False,0,5,0,False,,,,,,
p424,Langefossen,Vestland,waterfall,60.83975,6.17504,False,,,,,,False,0,5,0,False,,,,,,
p425,Pøylefossen,Vestland,waterfall,60.78104,5.85655,False,,,,,,False,0,5,0,False,,,,,,
p426,Strifossen,Vestland,waterfall,61.19601,5.5906,False,,,,,,False,0,5,0,False,,,,,,
p427,Haugfossane,Møre og Romsdal,waterfall,62.50468,6.81831,False,,,,,,False,0,5,0,False,,,,,,
p428,Giljafossen,Vestland,waterfall,60.51879,5.50394,False,,,,,,False,0,5,0,False,,,,,,
p429,Lifossen,Trøndelag,waterfall,63.64026,10.57214,False,,,,,,False,0,5,0,False,,,,,,
p430,Kvernafossen,Vestland,waterfall,60.54043,6.04288,False,,,,,,False,0,5,0,False,,,,,,
p431,Bergafossen,Vestland,waterfall,60.57208,6.89917,False,,,,,,False,0,5,0,False,,,,,,
p432,Smellefoss,Buskerud,waterfall,60.47909,9.19211,False,,,,,,False,0,5,0,False,,,,,,
p433,Botolvsfossen,Vestland,waterfall,61.05003,6.60906,False,,,,,,False,0,5,0,False,,,,,,
p434,Litlfallet,Innlandet,waterfall,61.39476,12.24804,False,,,,,,False,0,5,0,False,,,,,,
p435,Sagnfossen,Innlandet,waterfall,61.16196,12.44693,False,,,,,,False,0,5,0,False,,,,,,
p436,Falla,Innlandet,waterfall,60.91456,11.25508,False,,,,,,False,0,5,0,False,,,,,,
p437,Strypefossen,Buskerud,waterfall,60.55347,9.91863,False,,,,,,False,0,5,0,False,,,,,,
p438,Nyseterfossen,Møre og Romsdal,waterfall,62.66642,7.76615,False,,,,,,False,0,5,0,False,,,,,,
p439,Nekfallet,Innlandet,waterfall,62.06496,11.07217,False,,,,,,False,0,5,0,False,,,,,,
p440,Kolåsfossen,Møre og Romsdal,waterfall,62.23334,6.27973,False,,,,,,False,0,5,0,False,,,,,,
p441,Berlifossen,Møre og Romsdal,waterfall,62.34575,7.40845,False,,,,,,False,0,5,0,False,,,,,,
p442,Hestskofossen,Innlandet,waterfall,61.52065,12.06114,False,,,,,,False,0,5,0,False,,,,,,
p443,Litlefossen,Møre og Romsdal,waterfall,62.79647,7.22627,False,,,,,,False,0,5,1,False,Malmelva kraftverk.jpg: L1: Unknown or restricted license: cc by 4.0,,,,,
p444,Kvennfalla,Innlandet,waterfall,61.29574,12.00288,False,,,,,,False,0,5,0,False,,,,,,
p445,Aurdalsfossa,Innlandet,waterfall,60.5441,9.72725,False,,,,,,False,0,5,0,False,,,,,,
p446,Fagerhaugfossen,Møre og Romsdal,waterfall,63.26791,8.55081,False,,,,,,False,0,5,0,False,,,,,,
p447,Glømsefossen,Trøndelag,waterfall,63.00503,10.0583,False,,,,,,False,0,5,0,False,,,,,,
p448,Skynnfallet,Innlandet,waterfall,61.15959,11.31625,False,,,,,,False,0,5,0,False,,,,,,
p449,Hynnfossen,Trøndelag,waterfall,63.05741,11.43766,False,,,,,,False,0,5,0,False,,,,,,
p450,Styggfossen,Innlandet,waterfall,61.51971,12.0457,False,,,,,,False,0,5,0,False,,,,,,
p451,Stamfoss,Innlandet,waterfall,60.61542,9.70934,False,,,,,,False,0,5,0,False,,,,,,
p452,Sagfallet,Innlandet,waterfall,60.91147,11.41546,False,,,,,,False,0,5,0,False,,,,,,
p453,Storstoen,Trøndelag,waterfall,63.04029,9.24002,False,,,,,,False,0,5,0,False,,,,,,
p454,Gådalsfossen,Møre og Romsdal,waterfall,62.96616,7.2759,False,,,,,,False,0,5,0,False,,,,,,
p455,Rivdalsfossen,Trøndelag,waterfall,63.59456,9.63591,False,,,,,,False,0,5,0,False,,,,,,
p456,Tussfossen,Møre og Romsdal,waterfall,62.87414,7.47138,False,,,,,,False,0,5,0,False,,,,,,
p457,Børsfossen,Innlandet,waterfall,61.52375,12.00934,False,,,,,,False,0,5,0,False,,,,,,
p458,Linndalsfallet,Møre og Romsdal,waterfall,62.50128,9.08628,False,,,,,,False,0,5,0,False,,,,,,
p459,Klevfossen,Møre og Romsdal,waterfall,63.22877,8.58813,False,,,,,,False,0,5,0,False,,,,,,
p460,Renåfallet,Innlandet,waterfall,61.68208,11.26879,False,,,,,,False,0,5,0,False,,,,,,
p461,Gammelreita,Møre og Romsdal,waterfall,62.9583,7.92814,False,,,,,,False,0,5,0,False,,,,,,
p462,Hælufossen,Trøndelag,waterfall,62.8,9.58362,False,,,,,,False,0,5,0,False,,,,,,
p463,Kvernbekkfossen,Trøndelag,waterfall,63.32429,9.25323,False,,,,,,False,0,5,0,False,,,,,,
p464,Fossøyfossen,Møre og Romsdal,waterfall,63.31746,8.78978,False,,,,,,False,0,5,0,False,,,,,,
p465,Gravdefossen,Møre og Romsdal,waterfall,62.41189,8.01433,False,,,,,,False,0,5,0,False,,,,,,
p466,Døntefossen,Møre og Romsdal,waterfall,62.39983,8.00094,False,,,,,,False,0,5,3,False,"Døntefossen: L1: Unknown or restricted license: ; Rauma, Norway - panoramio (10).jpg: L1: Unknown or restricted license: cc by 3.0; Rauma, Norway - panoramio (11).jpg: L1: Unknown or restricted license: cc by 3.0",,,,,
p467,Tjønnfossen,Trøndelag,waterfall,62.894,9.96422,False,,,,,,False,0,5,0,False,,,,,,
p468,Stupen,Innlandet,waterfall,61.50015,12.07786,False,,,,,,False,0,5,0,False,,,,,,
p469,Sandåstoen,Trøndelag,waterfall,63.02881,9.23858,False,,,,,,False,0,5,0,False,,,,,,
p470,Haugabotsfossen,Møre og Romsdal,waterfall,62.49109,7.60468,False,,,,,,False,0,5,0,False,,,,,,
p471,Fossakroken,Møre og Romsdal,waterfall,62.33282,7.31338,False,,,,,,False,0,5,0,False,,,,,,
p472,Mongefossen,Møre og Romsdal,waterfall,62.44288,7.8951,False,,,,,,False,0,5,0,False,,,,,,
p473,Gudbrandsdalsfossen,Møre og Romsdal,waterfall,62.34389,7.47245,False,,,,,,False,0,5,0,False,,,,,,
p474,Idlefossen,Vestland,waterfall,60.76834,5.84353,False,,,,,,False,0,5,0,False,,,,,,
p475,Kleivafossen,Vestland,waterfall,61.21219,7.53689,False,,,,,,False,0,5,0,False,,,,,,
p476,Fossatromma,Vestland,waterfall,60.42533,7.25103,False,,,,,,False,0,5,0,False,,,,,,
p477,Øyrafossen,Vestland,waterfall,61.24648,5.55147,False,,,,,,False,0,5,0,False,,,,,,
p478,Ismalfossen,Buskerud,waterfall,60.40059,8.42855,False,,,,,,False,0,5,0,False,,,,,,
p479,Seterhølen,Møre og Romsdal,lake,62.79105,7.99421,False,,,,,,False,0,5,0,False,,,,,,
p480,Søre Steintjønnet,Innlandet,lake,61.61715,10.0439,False,,,,,,False,0,5,0,False,,,,,,
p481,Sivertdammen,Møre og Romsdal,lake,62.6933,6.69406,False,,,,,,False,0,5,0,False,,,,,,
p482,Ormetjern,Buskerud,lake,60.59207,9.23802,False,,,,,,False,0,5,0,False,,,,,,
p483,Lintjønna,Trøndelag,lake,62.62448,9.77791,False,,,,,,False,0,5,0,False,,,,,,
p484,Vetletjørni,Vestland,lake,61.10135,7.15337,False,,,,,,False,0,5,0,False,,,,,,
p485,Sløtatjernet,Innlandet,lake,60.80996,9.40076,False,,,,,,False,0,5,0,False,,,,,,
p486,Nørdre Steintjønnet,Innlandet,lake,61.62035,10.04119,False,,,,,,False,0,5,0,False,,,,,,
p487,Gututjørnet,Innlandet,lake,61.72645,10.17421,False,,,,,,False,0,5,0,False,,,,,,
p488,Øvre Røytjern,Buskerud,lake,60.72531,9.00144,False,,,,,,False,0,5,0,False,,,,,,
p489,Kjerringvatnet,Møre og Romsdal,lake,62.71243,6.74138,False,,,,,,False,0,5,0,False,,,,,,
p490,Øvre Bergetjønna,Innlandet,lake,61.60634,11.26314,False,,,,,,False,0,5,0,False,,,,,,
p491,Vikadalsvatnet,Vestland,lake,61.17937,7.85515,False,,,,,,False,0,5,0,False,,,,,,
p492,Berdalsvatnet,Vestland,lake,61.46059,7.71433,False,,,,,,False,0,5,0,False,,,,,,
p493,Lusetjernet,Innlandet,lake,60.74002,9.38989,False,,,,,,False,0,5,0,False,,,,,,
p494,Hallsettjønna,Trøndelag,lake,62.61145,9.75432,False,,,,,,False,0,5,0,False,,,,,,
p495,Langevatn,Buskerud,lake,60.64243,9.24119,False,,,,,,False,0,5,0,False,,,,,,
p496,Trytetjern,Buskerud,lake,60.57596,9.15481,False,,,,,,False,0,5,0,False,,,,,,
p497,Kvannebakktjerne,Buskerud,lake,60.77885,9.04634,False,,,,,,False,0,5,0,False,,,,,,
p498,Butjønne,Buskerud,lake,60.40252,8.94911,False,,,,,,False,0,5,0,False,,,,,,
p499,Bakkvatnet,Møre og Romsdal,lake,62.91684,7.81258,False,,,,,,False,0,5,0,False,,,,,,
p500,Assvaldsvatnet,Vestland,lake,61.15514,7.74064,False,,,,,,False,0,5,0,False,,,,,,
p501,Kroktjønna,Trøndelag,lake,62.89371,9.74965,False,,,,,,False,0,5,0,False,,,,,,
p502,Øvre Snelletjern,Innlandet,lake,60.65066,9.47246,False,,,,,,False,0,5,0,False,,,,,,
p503,Stormyrtjønnet,Innlandet,lake,61.65969,10.11262,False,,,,,,False,0,5,0,False,,,,,,
p504,Torvikvatnet,Møre og Romsdal,lake,62.93,7.85371,False,,,,,,False,0,5,0,False,,,,,,
p505,Ovadalsvatnet,Trøndelag,lake,63.62894,8.82818,False,,,,,,False,0,5,0,False,,,,,,
p506,Midtvatnet,Møre og Romsdal,lake,62.91079,7.8193,False,,,,,,False,0,5,0,False,,,,,,
p507,Litltjønna,Trøndelag,lake,63.25203,9.94166,False,,,,,,False,0,5,0,False,,,,,,
p508,Litløyvatnet,Trøndelag,lake,63.16501,8.93475,False,,,,,,False,0,5,0,False,,,,,,
p509,Hatlatjørna,Møre og Romsdal,lake,62.82849,7.76467,False,,,,,,False,0,5,0,False,,,,,,
p510,Ralletjern,Buskerud,lake,60.74653,8.96847,False,,,,,,False,0,5,0,False,,,,,,
p511,Orvillingen,Innlandet,lake,61.75162,9.73409,False,,,,,,False,0,5,0,False,,,,,,
p512,Vinddalsvatnet,Trøndelag,lake,63.26112,9.07446,False,,,,,,False,0,5,0,False,,,,,,
p513,Lona,Vestland,lake,61.57221,7.94179,False,,,,,,False,0,5,0,False,,,,,,
p514,Embretsgardtjerne,Buskerud,lake,60.80955,8.82848,False,,,,,,False,0,5,0,False,,,,,,
p515,Gilsvatnet,Vestland,lake,61.15239,7.05719,False,,,,,,False,0,5,0,False,,,,,,
p516,Heilstuguvatnet,Innlandet,lake,61.9843,7.59897,False,,,,,,False,0,5,0,False,,,,,,
p517,Håkontjern,Innlandet,lake,60.98718,9.35242,False,,,,,,False,0,5,0,False,,,,,,
p518,Nølegmanntjernet,Buskerud,lake,60.51092,8.97428,False,,,,,,False,0,5,0,False,,,,,,
p519,Fresketjønnet,Innlandet,lake,61.65706,10.07584,False,,,,,,False,0,5,0,False,,,,,,
p520,Heimdalsvatnet,Innlandet,lake,61.99919,7.70669,False,,,,,,False,0,5,0,False,,,,,,
p521,Simla,Vestland,lake,61.55321,7.9483,False,,,,,,False,0,5,0,False,,,,,,
p522,Østre Vikbutjønna,Innlandet,lake,61.78205,11.67043,False,,,,,,False,0,5,0,False,,,,,,
p523,Mefjellsvatnet,Innlandet,lake,61.56271,7.94665,False,,,,,,False,0,5,0,False,,,,,,
p524,Guttormstjønne,Innlandet,lake,61.8143,9.47826,False,,,,,,False,0,5,0,False,,,,,,
p525,Kummen,Vestland,lake,61.55961,7.94366,False,,,,,,False,0,5,0,False,,,,,,
p526,Røykeskålvatnet,Innlandet,lake,61.79297,7.65828,False,,,,,,False,0,5,0,False,,,,,,
p527,Litlslættestjønna,Trøndelag,lake,62.72369,9.91428,False,,,,,,False,0,5,0,False,,,,,,
p528,Krongeltjørni,Vestland,lake,61.56773,7.93792,False,,,,,,False,0,5,0,False,,,,,,
p529,Stabbeskaret,Møre og Romsdal,viewpoint,62.47473,7.73757,False,,,,,,False,0,5,0,False,,,,,,
p530,Soggebrua,Møre og Romsdal,viewpoint,62.53278,7.73679,False,,,,,,False,0,5,0,False,,,,,,
p531,Korsmyra,Møre og Romsdal,viewpoint,62.1352,7.18524,False,,,,,,False,0,5,0,False,,,,,,
p532,Krunesfossen,Vestland,viewpoint,61.76723,7.03547,False,,,,,,False,0,5,0,False,,,,,,
p533,Bålhuset,Møre og Romsdal,viewpoint,63.00235,7.28089,False,,,,,,False,0,5,0,False,,,,,,
p534,Ørnesvingen,Møre og Romsdal,viewpoint,62.12625,7.16674,False,,,,,,False,0,5,5,False,MS Nordstjernen 01.jpg: L1: Unknown or restricted license: cc by 2.0; Nordstjernen DSC 0394.jpg: L1: Unknown or restricted license: cc by 2.0; MSC Splendida in Geirangerfjorden 20150604 1.jpg: L1: Unknown or restricted license: cc by-sa 4.0,,,,,
p535,Kleivahammaren,Møre og Romsdal,viewpoint,62.23082,7.15861,False,,,,,,False,0,5,0,False,,,,,,
p536,Irmahytta,Trøndelag,viewpoint,63.44249,11.07819,False,,,,,,False,0,5,0,False,,,,,,
p537,Slottet,Vestland,viewpoint,60.79483,5.75633,False,,,,,,False,0,5,0,False,,,,,,
p538,Hosetlia,Møre og Romsdal,viewpoint,62.97805,7.62253,False,,,,,,False,0,5,0,False,,,,,,
p539,Skårhåmmåren,Trøndelag,viewpoint,63.48306,10.80118,False,,,,,,False,0,5,0,False,,,,,,
p540,Strætasfjellet,Trøndelag,viewpoint,63.42367,11.05435,False,,,,,,False,0,5,0,False,,,,,,
p541,Pavan,Trøndelag,viewpoint,63.44385,11.04356,False,,,,,,False,0,5,0,False,,,,,,
p542,Flaskå,Vestland,viewpoint,60.5893,5.83474,False,,,,,,False,0,5,0,False,,,,,,
p543,Hundkjerka,Trøndelag,viewpoint,63.46117,11.20208,False,,,,,,False,0,5,0,False,,,,,,
p544,Øyungskuven,Innlandet,viewpoint,60.56389,11.01773,False,,,,,,False,0,5,0,False,,,,,,
p545,Snauskallen,Trøndelag,viewpoint,63.43118,10.89526,False,,,,,,False,0,5,0,False,,,,,,
p546,Raudsandberget,Møre og Romsdal,viewpoint,63.06384,7.66555,False,,,,,,False,0,5,0,False,,,,,,
p547,Storenipa,Vestland,viewpoint,60.66393,5.7911,False,,,,,,False,0,5,0,False,,,,,,
p548,Varden,Møre og Romsdal,viewpoint,62.9849,7.83942,False,,,,,,False,0,5,0,False,,,,,,
p549,Segalstadsæterkampen,Innlandet,viewpoint,61.45997,10.13043,False,,,,,,False,0,5,0,False,,,,,,
p550,Skarvan,Møre og Romsdal,viewpoint,62.89598,7.50598,False,,,,,,False,0,5,0,False,,,,,,
p551,Ølemannbenken,Vestland,viewpoint,60.55672,5.72072,False,,,,,,False,0,5,0,False,,,,,,
p552,Dalestølen utsiktspunkt,Vestland,viewpoint,60.57209,5.81613,False,,,,,,False,0,5,0,False,,,,,,
p553,Synsåsen,Innlandet,viewpoint,61.03585,11.22852,False,,,,,,False,0,5,0,False,,,,,,
p554,Tørråsen,Innlandet,viewpoint,61.67508,11.31797,False,,,,,,False,0,5,0,False,,,,,,
p555,Svarthammaren,Innlandet,viewpoint,61.77844,12.0353,False,,,,,,False,0,5,0,False,,,,,,
p556,Storafjellet utsiktspunkt,Vestland,viewpoint,60.57263,5.73617,False,,,,,,False,0,5,0,False,,,,,,
p557,Glomnesfossen utsiktspunkt,Vestland,viewpoint,61.92119,7.08882,False,,,,,,False,0,5,0,False,,,,,,
p558,Storekvilet,Vestland,viewpoint,61.92162,7.08596,False,,,,,,False,0,5,0,False,,,,,,
p559,Brandbustrønde,Innlandet,beach,61.38063,8.33893,False,,,,,,False,0,5,0,False,,,,,,
p560,Kløvningadn,Innlandet,beach,61.15916,8.5108,False,,,,,,False,0,5,0,False,,,,,,
p561,Pålssanden,Innlandet,beach,61.10789,8.68734,False,,,,,,False,0,5,0,False,,,,,,
p562,Søvelsteinsanden,Innlandet,beach,61.09719,8.70742,False,,,,,,False,0,5,0,False,,,,,,
p563,Boligvika Badeplass,Innlandet,beach,60.93782,10.68084,False,,,,,,False,0,5,0,False,,,,,,
p564,Kriksvika,Innlandet,beach,61.22225,10.62826,False,,,,,,False,0,5,0,False,,,,,,
p565,Eiesand,Innlandet,beach,61.61214,9.7272,False,,,,,,False,0,5,0,False,,,,,,
p566,Kjemsjø,Innlandet,beach,61.56411,11.08912,False,,,,,,False,0,5,0,False,,,,,,
p567,Klokkarstranda,Innlandet,beach,61.57126,9.86031,False,,,,,,False,0,5,0,False,,,,,,
p568,Korsvika,Trøndelag,beach,63.45011,10.4329,False,,,,,,False,0,5,0,False,,,,,,
p569,Brænnebukta,Trøndelag,beach,63.44763,10.32901,False,,,,,,False,0,5,0,False,,,,,,
p570,Ringvebukta,Trøndelag,beach,63.45277,10.4625,False,,,,,,False,0,5,0,False,,,,,,
p571,Skjellbreia,Trøndelag,beach,63.39056,10.24389,False,,,,,,False,0,5,0,False,,,,,,
p572,Øysanden,Trøndelag,beach,62.50665,11.92017,False,,,,,,False,0,5,1,False,Øysand: L1: Unknown or restricted license: ,,,,,
p573,Kalkstranda,Møre og Romsdal,beach,62.98946,8.61793,False,,,,,,False,0,5,0,False,,,,,,
p574,Blimsanden,Møre og Romsdal,beach,62.56434,6.04902,False,,,,,,False,0,5,0,False,,,,,,
p575,Gjerdesanden,Møre og Romsdal,beach,62.50825,6.0634,False,,,,,,False,0,5,0,False,,,,,,
p576,Korsvollstranda,Møre og Romsdal,beach,63.28862,8.14013,False,,,,,,False,0,5,0,False,,,,,,
p577,Osnesanden,Møre og Romsdal,beach,62.34394,5.82617,False,,,,,,False,0,5,0,False,,,,,,
p578,Ulsteinsanden,Møre og Romsdal,beach,62.36718,5.81825,False,,,,,,False,0,5,0,False,,,,,,
p579,Krokåttbekken,Trøndelag,picnic,63.37459,10.82046,False,,,,,,False,0,5,0,False,,,,,,
p580,Bergsøysundbrua,Møre og Romsdal,picnic,62.98939,7.88228,False,,,,,,False,0,5,0,False,,,,,,
p581,Gjemnessundbrua,Møre og Romsdal,picnic,62.97517,7.7865,False,,,,,,False,0,5,0,False,,,,,,
p582,Svalåsen rasteplass,Innlandet,picnic,61.98485,11.7388,False,,,,,,False,0,5,0,False,,,,,,
p583,Krokatbekkbue,Innlandet,picnic,61.85414,9.76288,False,,,,,,False,0,5,0,False,,,,,,
p584,Hola,Møre og Romsdal,picnic,62.99482,7.16629,False,,,,,,False,0,5,0,False,,,,,,
p585,Birkebeiner kilden,Innlandet,spring,61.1025,11.06708,False,,,,,,False,0,5,0,False,,,,,,
p586,St. Olavskilden,Innlandet,spring,61.05281,10.47106,False,,,,,,False,0,5,0,False,,,,,,
p587,St. Olavskilden på Dovre,Innlandet,spring,61.99905,9.24472,False,,,,,,False,0,5,0,False,,,,,,
p588,Hopakjelda,Vestland,spring,61.26585,7.16034,False,,,,,,False,0,5,0,False,,,,,,
p589,Bjørns kilde,Innlandet,spring,61.56196,11.16394,False,,,,,,False,0,5,0,False,,,,,,
p590,Dølkjøylla,Innlandet,spring,61.20197,10.42237,False,,,,,,False,0,5,0,False,,,,,,
p591,Trollkjelda,Innlandet,spring,60.84878,12.29096,False,,,,,,False,0,5,0,False,,,,,,
p592,Vasstrone,Innlandet,spring,61.14128,8.72556,False,,,,,,False,0,5,0,False,,,,,,
p593,Elgkjelda,Innlandet,spring,60.69386,12.27601,False,,,,,,False,0,5,0,False,,,,,,
p594,Steinkjelda,Innlandet,spring,60.69155,12.26684,False,,,,,,False,0,5,0,False,,,,,,
p595,Doktorkjelda,Innlandet,spring,60.65979,12.24056,False,,,,,,False,0,5,0,False,,,,,,
p596,Rosemaries kilde,Innlandet,spring,61.70555,11.23666,False,,,,,,False,0,5,0,False,,,,,,
p597,Bjørkkjelda,Innlandet,spring,61.17601,11.93926,False,,,,,,False,0,5,0,False,,,,,,
p598,Didrikskjelda,Innlandet,spring,61.21945,10.81673,False,,,,,,False,0,5,0,False,,,,,,
p599,Stalheimskleivi,Vestland,geology,60.83854,6.68922,False,,,,,,False,0,5,1,False,Stalheimskleivi: L1: Unknown or restricted license: ,,,,,
p600,Vetlahelvete,Vestland,geology,60.84405,7.42406,False,,,,,,False,0,5,0,False,,,,,,
p601,Golsjuvet,Buskerud,geology,60.72668,8.90553,False,,,,,,False,0,5,0,False,,,,,,
p602,Lygnstøylvatnet,Møre og Romsdal,geology,62.1751,6.72727,False,,,,,,False,0,5,0,False,,,,,,
p603,Helvete Jettegrytene / Potholes,Innlandet,geology,61.36182,9.67161,False,,,,,,False,0,5,0,False,,,,,,
p604,Bøverfossen,Innlandet,geology,62.26709,8.20247,False,,,,,,False,0,5,0,False,,,,,,
p605,Tegningfallet,Innlandet,geology,61.87794,10.85054,False,,,,,,False,0,5,0,False,,,,,,
p606,Steinparken,Møre og Romsdal,geology,62.90757,6.90708,False,,,,,,False,0,5,0,False,,,,,,
p607,Magalaupet,Trøndelag,geology,62.50019,9.5863,False,,,,,,False,0,5,0,False,,,,,,
p608,Jettegrytene ved Lona,Trøndelag,geology,62.69733,9.07071,False,,,,,,False,0,5,0,False,,,,,,
p609,Dødisgropene,Trøndelag,geology,62.68988,9.13709,False,,,,,,False,0,5,0,False,,,,,,
p610,Grønnvollsteinen,Møre og Romsdal,geology,62.51617,8.54797,False,,,,,,False,0,5,0,False,,,,,,
p611,Trollkyrkja,Møre og Romsdal,geology,62.88901,7.26787,False,,,,,,False,0,5,0,False,,,,,,
p612,Trollkyrkja – Oppdal,Trøndelag,geology,62.7253,9.50928,False,,,,,,False,0,5,0,False,,,,,,
p613,Skjonghellaren,Møre og Romsdal,geology,62.51903,6.10446,False,,,,,,False,0,5,0,False,,,,,,
p614,Bremsneshula,Møre og Romsdal,geology,63.07941,7.64604,False,,,,,,False,0,5,0,False,,,,,,
p615,Jutulholet,Møre og Romsdal,geology,63.37395,8.53573,False,,,,,,False,0,5,0,False,,,,,,
p616,Jøtulomnen,Møre og Romsdal,geology,62.97626,8.80385,False,,,,,,False,0,5,0,False,,,,,,
p617,Kaldehola,Vestland,geology,61.30413,7.25478,False,,,,,,False,0,5,0,False,,,,,,
p618,Kvitflekken,Møre og Romsdal,geology,63.35944,8.55027,False,,,,,,False,0,5,0,False,,,,,,
p619,Romsdalshornet,Møre og Romsdal,mountain_hike,62.49124,7.78615,False,,,,,,False,0,5,0,False,,,,,,
p620,Store Venjetinden,Møre og Romsdal,mountain_hike,62.50762,7.84004,False,,,,,,False,0,5,0,False,,,,,,
p621,Salhøa,Møre og Romsdal,mountain_hike,62.35937,9.01888,False,,,,,,False,0,5,0,False,,,,,,
p622,Skarven,Møre og Romsdal,mountain_hike,62.61453,7.85177,False,,,,,,False,0,5,0,False,,,,,,
p623,Rjuptinden,Møre og Romsdal,mountain_hike,62.68943,7.77997,False,,,,,,False,0,5,0,False,,,,,,
p624,Heimre Rjuptinden,Møre og Romsdal,mountain_hike,62.68982,7.75882,False,,,,,,False,0,5,0,False,,,,,,
p625,Snarketinden,Møre og Romsdal,mountain_hike,62.67588,7.82849,False,,,,,,False,0,5,0,False,,,,,,
p626,Daurmålhaugen,Møre og Romsdal,mountain_hike,62.69831,7.84081,False,,,,,,False,0,5,0,False,,,,,,
p627,Vaffeltoppen,Agder,mountain_hike,58.50772,8.8778,False,,,,,,False,0,5,0,False,,,,,,
p628,Takseråsen,Agder,mountain_hike,58.51252,8.88361,False,,,,,,False,0,5,0,False,,,,,,
p629,Øygardsåsen,Agder,mountain_hike,58.54349,8.96257,False,,,,,,False,0,5,0,False,,,,,,
p630,Hvalåsen,Agder,mountain_hike,58.54607,8.97157,False,,,,,,False,0,5,0,False,,,,,,
p631,Furukongen,Agder,mountain_hike,58.44747,8.75528,False,,,,,,False,0,5,0,False,,,,,,
p632,Ulleråsen,Agder,mountain_hike,58.5038,8.87161,False,,,,,,False,0,5,0,False,,,,,,
p633,Påskedagsheia,Agder,mountain_hike,58.41746,8.70561,False,,,,,,False,0,5,0,False,,,,,,
p634,Trollefjell,Agder,mountain_hike,58.38065,8.6966,False,,,,,,False,0,5,0,False,,,,,,
p635,Åkerslia,Innlandet,mountain_hike,60.9913,12.08391,False,,,,,,False,0,5,0,False,,,,,,
p636,Gamphaugen,Innlandet,mountain_hike,61.08271,12.08897,False,,,,,,False,0,5,0,False,,,,,,
p637,Gjeddsjøberget,Innlandet,mountain_hike,60.96051,12.0201,False,,,,,,False,0,5,0,False,,,,,,
p638,Håberget,Innlandet,mountain_hike,61.06299,12.0465,False,,,,,,False,0,5,0,False,,,,,,
p639,Flisberget,Innlandet,mountain_hike,61.01042,12.10033,False,,,,,,False,0,5,1,False,Flisberget: L1: Unknown or restricted license: ,,,,,
p640,Nonshøa,Trøndelag,mountain_hike,62.66235,9.02645,False,,,,,,False,0,5,0,False,,,,,,
p641,Ingebjørgsfjellet,Vestland,mountain_hike,61.31283,7.51422,False,,,,,,False,0,5,0,False,,,,,,
p642,Holtane,Vestland,mountain_hike,61.39412,7.51207,False,,,,,,False,0,5,0,False,,,,,,
p643,Kinnfokfjellet,Vestland,mountain_hike,61.4916,7.50671,False,,,,,,False,0,5,0,False,,,,,,
p644,Greineggi,Vestland,mountain_hike,61.70274,7.52436,False,,,,,,False,0,5,0,False,,,,,,
p645,Leirbotnnosi,Vestland,mountain_hike,61.64812,7.50189,False,,,,,,False,0,5,0,False,,,,,,
p646,Martadalsnosi,Vestland,mountain_hike,61.66908,7.50274,False,,,,,,False,0,5,0,False,,,,,,
p647,Sprangdalseggi,Vestland,mountain_hike,61.76029,7.51465,False,,,,,,False,0,5,0,False,,,,,,
p648,Kolinosi,Vestland,mountain_hike,61.58699,7.53402,False,,,,,,False,0,5,0,False,,,,,,
p649,Kalianoppknuvlen,Innlandet,mountain_hike,61.09776,12.35861,False,,,,,,False,0,5,0,False,,,,,,
p650,Gudfallknappen,Innlandet,mountain_hike,61.10024,12.34457,False,,,,,,False,0,5,0,False,,,,,,
p651,Knappa,Innlandet,mountain_hike,61.12677,12.02963,False,,,,,,False,0,5,0,False,,,,,,
p652,Batteriåsen,Østfold,mountain_hike,59.60927,11.12918,False,,,,,,False,0,5,0,False,,,,,,
p653,Romsåsen,Østfold,mountain_hike,59.58824,11.10955,False,,,,,,False,0,5,0,False,,,,,,
p654,Kråkåsen,Østfold,mountain_hike,59.58883,11.123,False,,,,,,False,0,5,0,False,,,,,,
p655,Falkenuten,Telemark,mountain_hike,60.01462,7.48755,False,,,,,,False,0,5,0,False,,,,,,
p656,Brasfetnuten,Telemark,mountain_hike,60.01727,7.43091,False,,,,,,False,0,5,0,False,,,,,,
p657,Kikkeråsen,Akershus,mountain_hike,59.58229,10.66796,False,,,,,,False,0,5,0,False,,,,,,
p658,Store Hiesten,Østfold,mountain_hike,59.44232,11.47719,False,,,,,,False,0,5,0,False,,,,,,
p659,Østbyseterhøyda,Østfold,mountain_hike,59.46448,11.4484,False,,,,,,False,0,5,0,False,,,,,,
p660,Kåsheia,Telemark,mountain_hike,59.08051,8.75649,False,,,,,,False,0,5,0,False,,,,,,
p661,Måna,Telemark,mountain_hike,59.12086,8.83143,False,,,,,,False,0,5,1,False,Måna: L1: Unknown or restricted license: ,,,,,
p662,Rønnomnibben,Telemark,mountain_hike,59.12852,8.82148,False,,,,,,False,0,5,0,False,,,,,,
p663,Netten,Telemark,mountain_hike,58.92837,8.56101,False,,,,,,False,0,5,0,False,,,,,,
p664,Velaus,Telemark,mountain_hike,58.87917,8.77924,False,,,,,,False,0,5,0,False,,,,,,
p665,Solhomfjell,Telemark,mountain_hike,58.95918,8.76967,False,,,,,,False,0,5,0,False,,,,,,
p666,Rakelstadfjellet,Østfold,mountain_hike,59.61614,11.00834,False,,,,,,False,0,5,0,False,,,,,,
p667,Spydeberg varde,Østfold,mountain_hike,59.57789,11.0059,False,,,,,,False,0,5,0,False,,,,,,
p668,Klompåsen,Østfold,mountain_hike,59.6323,11.06532,False,,,,,,False,0,5,0,False,,,,,,
p669,Bjørnåsen,Akershus,mountain_hike,59.64279,10.54419,False,,,,,,False,0,5,0,False,,,,,,
p670,Midtskogåsen,Akershus,mountain_hike,59.65192,10.54091,False,,,,,,False,0,5,0,False,,,,,,
p671,Årosfjellet,Akershus,mountain_hike,59.71093,10.51637,False,,,,,,False,0,5,0,False,,,,,,
p672,Tivoliåsen,Akershus,mountain_hike,59.70758,10.51788,False,,,,,,False,0,5,0,False,,,,,,
p673,Lauvåsen,Akershus,mountain_hike,59.67404,10.50056,False,,,,,,False,0,5,0,False,,,,,,
p674,Stikkvannskollen,Akershus,mountain_hike,59.63069,10.52459,False,,,,,,False,0,5,0,False,,,,,,
p675,Dustadkollen,Akershus,mountain_hike,59.57007,10.50313,False,,,,,,False,0,5,0,False,,,,,,
p676,Måsvasstind,Møre og Romsdal,mountain_hike,62.63504,7.81576,False,,,,,,False,0,5,0,False,,,,,,
p677,Viddefladen,Agder,mountain_hike,58.36223,8.62971,False,,,,,,False,0,5,0,False,,,,,,
p678,Ankerfjellet,Agder,mountain_hike,58.34125,8.67703,False,,,,,,False,0,5,0,False,,,,,,
p679,Lindesnes fyr,Agder,lighthouse,57.9825,7.04667,False,,,,,,False,0,5,0,False,,,,,,
p680,Lista fyr,Agder,lighthouse,58.10929,6.56691,False,,,,,,False,0,5,0,False,,,,,,
p681,Færder fyr,Vestfold,lighthouse,59.02681,10.52464,False,,,,,,False,0,5,0,False,,,,,,
p682,Oksøy fyr,Agder,lighthouse,58.07229,8.05282,False,,,,,,False,0,5,1,False,Oksøy fyr: L1: Unknown or restricted license: ,,,,,
p683,Ryvingen fyr,Agder,lighthouse,57.96807,7.49158,False,,,,,,False,0,5,5,False,Ryvingen fyr: L1: Unknown or restricted license: ; Fishing Ryvingen.jpg: L1: Unknown or restricted license: cc by 2.0; Utsikt fra Ryvingen fyr mot Lindesneshalvøya.jpg: L1: Unknown or restricted license: cc by 2.0,,,,,
p684,Marstein fyr,Vestland,lighthouse,60.13066,5.00917,False,,,,,,False,0,5,1,False,Marstein fyr: L1: Unknown or restricted license: ,,,,,
p685,Grønningen fyr,Agder,lighthouse,58.08138,8.08789,False,,,,,,False,0,5,1,False,Grønningen fyr: L1: Unknown or restricted license: ,,,,,
p686,Eigerøy fyr,Rogaland,lighthouse,58.43081,5.86762,False,,,,,,False,0,5,0,False,,,,,,
p687,Hellisøy fyr,Vestland,lighthouse,60.75209,4.71069,False,,,,,,False,0,5,0,False,,,,,,
p688,Ryvarden fyr,Vestland,lighthouse,59.52693,5.22516,False,,,,,,False,0,5,0,False,,,,,,
p689,Torungen fyr,Agder,lighthouse,58.39885,8.79025,False,,,,,,False,0,5,0,False,,,,,,
p690,Ona fyr,Møre og Romsdal,lighthouse,62.8634,6.54363,False,,,,,,False,0,5,0,False,,,,,,
p691,Lille Torungen fyr,Agder,lighthouse,58.41204,8.79166,False,,,,,,False,0,5,0,False,,,,,,
p692,Grip fyr,Møre og Romsdal,lighthouse,63.23387,7.60913,False,,,,,,False,0,5,0,False,,,,,,
p693,Kvitsøy,Rogaland,lighthouse,59.06202,5.4001,False,,,,,,False,0,5,0,False,,,,,,
p694,Utsira fyr,Rogaland,lighthouse,59.30686,4.87123,False,,,,,,False,0,5,0,False,,,,,,
p695,Ulla fyr,Møre og Romsdal,lighthouse,62.6851,6.16513,False,,,,,,False,0,5,0,False,,,,,,
p696,Obrestad fyr,Rogaland,lighthouse,58.65801,5.55427,False,,,,,,False,0,5,0,False,,,,,,
p697,Hellevik Lighthouse (Range Rear),Møre og Romsdal,lighthouse,62.63625,6.1761,False,,,,,,False,0,5,0,False,,,,,,
p698,Skalmen fyr,Møre og Romsdal,lighthouse,63.47215,7.75718,False,,,,,,False,0,5,0,False,,,,,,
p699,Svenner fyr,Vestfold,lighthouse,58.96917,10.14787,False,,,,,,False,0,5,0,False,,,,,,
p700,Fulehuk fyr,Vestfold,lighthouse,59.17534,10.5992,False,,,,,,False,0,5,5,False,Fulehuk fyr: L1: Unknown or restricted license: ; Lille Rauer fra innerst i bukta mot nord - panoramio.jpg: L1: Unknown or restricted license: cc by 3.0; Lille Rauer - panoramio.jpg: L1: Unknown or restricted license: cc by 3.0,,,,,
p701,Tvistein fyr,Vestfold,lighthouse,58.93808,9.93634,False,,,,,,False,0,5,2,False,Tvistein fyr: L1: Unknown or restricted license: ; Tvistein fyrstasjon.jpg: L1: Unknown or restricted license: cc by-sa 4.0,,,,,
p702,Langøytangen fyr,Telemark,lighthouse,58.99169,9.75708,False,,,,,,False,0,5,5,False,"Langøytangen fyr: L1: Unknown or restricted license: ; Apoderus coryli-p.jpg: L1: Unknown or restricted license: cc by-sa 4.0; Hesteklova, Langesundstangen naturreservat, 2023 (2).jpg: L1: Unknown or restricted license: cc by-sa 4.0",,,,,
p703,Torbjørnskjær fyr,Østfold,lighthouse,58.99632,10.7817,False,,,,,,False,0,5,0,False,,,,,,
p704,Gullholmen fyr,Østfold,lighthouse,59.4352,10.5767,False,,,,,,False,0,5,0,False,,,,,,
p705,Stavernsodden fyr,Vestfold,lighthouse,58.98739,10.05228,False,,,,,,False,0,5,0,False,,,,,,
p706,Molja fyr,Møre og Romsdal,lighthouse,62.47454,6.15012,False,,,,,,False,0,5,0,False,,,,,,
p707,Homlungen fyr,Østfold,lighthouse,59.01606,11.02409,False,,,,,,False,0,5,0,False,,,,,,
p708,Jomfruland fyr,Telemark,lighthouse,58.86511,9.59637,False,,,,,,False,0,5,0,False,,,,,,
p709,Strømtangen fyr,Østfold,lighthouse,59.15119,10.82944,False,,,,,,False,0,5,0,False,,,,,,
p710,Struten fyr,Østfold,lighthouse,59.11817,10.74133,False,,,,,,False,0,5,0,False,,,,,,
p711,Strømtangen fyr – Kragerø,Telemark,lighthouse,58.83671,9.4643,False,,,,,,False,0,5,0,False,,,,,,
p712,Kavringen fyr,Süd-/Mittelnorwegen,lighthouse,59.89981,10.72202,False,,,,,,False,0,5,0,False,,,,,,
p713,Slevik,Østfold,lighthouse,59.18167,10.79757,False,,,,,,False,0,5,0,False,,,,,,
p714,Fløberg lykt,Østfold,lighthouse,59.04012,11.41934,False,,,,,,False,0,5,0,False,,,,,,
p715,Leirvik Fyr,Vestland,lighthouse,59.78185,5.50429,False,,,,,,False,0,5,0,False,,,,,,
p716,Tyneset Fyr,Vestland,lighthouse,59.79804,5.53861,False,,,,,,False,0,5,0,False,,,,,,
p717,Terningen fyr,Trøndelag,lighthouse,63.49379,9.0394,False,,,,,,False,0,5,0,False,,,,,,
p718,Fladholmen fyr,Rogaland,lighthouse,58.92241,5.55548,False,,,,,,False,0,5,0,False,,,,,,
p719,Slåtterøy fyr,Vestland,lighthouse,59.90805,5.06726,False,,,,,,False,0,5,0,False,,,,,,
p720,Feistein fyr,Rogaland,lighthouse,58.82637,5.50514,False,,,,,,False,0,5,0,False,,,,,,
p721,Litle Prestskjeret fyr,Rogaland,lighthouse,58.32289,6.25748,False,,,,,,False,0,5,0,False,,,,,,
p722,Lyngør fyr,Agder,lighthouse,58.63579,9.14831,False,,,,,,False,0,5,0,False,,,,,,
p723,Odderøya Fyr,Agder,lighthouse,58.13144,8.00225,False,,,,,,False,0,5,0,False,,,,,,
p724,Hattholmen fyr,Agder,lighthouse,58.00344,7.44946,False,,,,,,False,0,5,0,False,,,,,,
p725,Høgfallet,Møre og Romsdal,waterfall,62.76923,8.2234,False,,,,,,False,0,5,0,False,,,,,,
p726,Hovsfoss,Buskerud,waterfall,60.18687,10.23704,False,,,,,,False,0,5,0,False,,,,,,
p727,Hensfossen,Buskerud,waterfall,60.21129,10.23657,False,,,,,,False,0,5,0,False,,,,,,
p728,Hattebergfossen,Vestland,waterfall,59.98622,6.04143,False,,,,,,False,0,5,0,False,,,,,,
p729,Furebergsfossen,Vestland,waterfall,60.09973,6.16973,False,,,,,,False,0,5,0,False,,,,,,
p730,Sundefossen,Vestland,waterfall,60.13305,6.36288,False,,,,,,False,0,5,0,False,,,,,,
p731,Skyrdalsfossen,Vestland,waterfall,60.19933,6.34646,False,,,,,,False,0,5,0,False,,,,,,
p732,Stødnafossen,Vestland,waterfall,61.11145,7.49974,False,,,,,,False,0,5,0,False,,,,,,
p733,Rønningsfossen,Innlandet,waterfall,61.10169,12.41615,False,,,,,,False,0,5,0,False,,,,,,
p734,Grønmyrfallet,Innlandet,waterfall,61.44747,12.24348,False,,,,,,False,0,5,0,False,,,,,,
p735,Kongsbekkfossen,Innlandet,waterfall,61.4672,12.23351,False,,,,,,False,0,5,0,False,,,,,,
p736,Veslfallet,Innlandet,waterfall,61.35576,12.17758,False,,,,,,False,0,5,0,False,,,,,,
p737,Vetlefossen,Vestland,waterfall,60.85555,6.81108,False,,,,,,False,0,5,0,False,,,,,,
p738,Brurasløret,Møre og Romsdal,waterfall,62.42332,8.02187,False,,,,,,False,0,5,0,False,,,,,,
p739,Gluterfossen,Møre og Romsdal,waterfall,62.5205,7.96881,False,,,,,,False,0,5,0,False,,,,,,
p740,Ljosurfossen,Møre og Romsdal,waterfall,62.08378,7.06634,False,,,,,,False,0,5,1,False,Ljosurfossen: L1: Unknown or restricted license: ,,,,,
p741,Svartåsfossen,Trøndelag,waterfall,63.28839,11.2973,False,,,,,,False,0,5,0,False,,,,,,
p742,Skeidslåfossen,Vestland,waterfall,61.16094,7.66315,False,,,,,,False,0,5,1,False,Skeidslåfossen: L1: Unknown or restricted license: ,,,,,
p743,Kyrfoss,Vestland,waterfall,61.33363,7.88942,False,,,,,,False,0,5,0,False,,,,,,
p744,Grønnmyrfossen,Buskerud,waterfall,60.13427,9.94792,False,,,,,,False,0,5,0,False,,,,,,
p745,Presten,Trøndelag,waterfall,63.16434,9.36309,False,,,,,,False,0,5,0,False,,,,,,
p746,Ner Kvernfossen,Trøndelag,waterfall,63.1725,9.99202,False,,,,,,False,0,5,0,False,,,,,,
p747,Kvislefoss,Buskerud,waterfall,60.841,8.42292,False,,,,,,False,0,5,0,False,,,,,,
p748,Brattfoss,Süd-/Mittelnorwegen,waterfall,60.54682,7.67334,False,,,,,,False,0,5,0,False,,,,,,
p749,Hagafossen,Buskerud,waterfall,60.59648,8.34762,False,,,,,,False,0,5,0,False,,,,,,
p750,Kvåsfossen,Agder,waterfall,58.26449,7.18993,False,,,,,,False,0,5,0,False,,,,,,
p751,Skrelifallan,Agder,waterfall,58.15259,6.89479,False,,,,,,False,0,5,0,False,,,,,,
p752,Glofossen,Agder,waterfall,58.19626,7.03938,False,,,,,,False,0,5,0,False,,,,,,
p753,Furafalla,Innlandet,waterfall,60.94479,11.25366,False,,,,,,False,0,5,0,False,,,,,,
p754,Nedre Frysihjelfossen,Innlandet,waterfall,60.48874,10.24104,False,,,,,,False,0,5,0,False,,,,,,
p755,Bergføss,Innlandet,waterfall,60.73991,9.59331,False,,,,,,False,0,5,0,False,,,,,,
p756,Svae,Innlandet,waterfall,60.7564,9.648,False,,,,,,False,0,5,0,False,,,,,,
p757,Skjerkefossen,Agder,waterfall,58.71809,7.18342,False,,,,,,False,0,5,0,False,,,,,,
p758,Bjorlofoss,Agder,waterfall,58.66719,7.02242,False,,,,,,False,0,5,0,False,,,,,,
p759,Knarvestølfallet,Agder,waterfall,58.33033,6.93429,False,,,,,,False,0,5,0,False,,,,,,
p760,Røylandsfossen,Agder,waterfall,58.53895,7.03143,False,,,,,,False,0,5,0,False,,,,,,
p761,Ruganfossen,Agder,waterfall,58.53238,6.90657,False,,,,,,False,0,5,0,False,,,,,,
p762,Fosshøgget,Telemark,waterfall,59.33973,8.48591,False,,,,,,False,0,5,0,False,,,,,,
p763,Storstraum,Telemark,waterfall,59.3188,8.43328,False,,,,,,False,0,5,0,False,,,,,,
p764,Fosshogget – Kviteseid,Telemark,waterfall,59.27619,8.34914,False,,,,,,False,0,5,0,False,,,,,,
p765,Hallingbrufossen,Buskerud,waterfall,60.26127,9.3562,False,,,,,,False,0,5,0,False,,,,,,
p766,Bråtaseterfoss,Buskerud,waterfall,60.26654,9.41169,False,,,,,,False,0,5,2,False,Tempelsetra Blue.jpg: L1: Unknown or restricted license: cc by 2.0; Fjellstuekontor.jpg: L1: Unknown or restricted license: cc by-sa 4.0,,,,,
p767,Langefoss,Buskerud,waterfall,60.1338,9.41016,False,,,,,,False,0,5,0,False,,,,,,
p768,Fosserfoss,Østfold,waterfall,59.37584,11.46299,False,,,,,,False,0,5,0,False,,,,,,
p769,Julsrud foss,Østfold,waterfall,59.28968,11.42842,False,,,,,,False,0,5,0,False,,,,,,
p770,Dritufoss,Østfold,waterfall,59.33831,11.38504,False,,,,,,False,0,5,0,False,,,,,,
p771,Storetorpfossen,Østfold,waterfall,59.35943,11.51729,False,,,,,,False,0,5,0,False,,,,,,
p772,Sørdalsfoss,Østfold,waterfall,59.38211,11.55468,False,,,,,,False,0,5,0,False,,,,,,
p773,Svenstadånfossen,Telemark,waterfall,59.08701,8.81126,False,,,,,,False,0,5,0,False,,,,,,
p774,Fentefossen,Telemark,waterfall,59.2383,8.66172,False,,,,,,False,0,5,0,False,,,,,,
p775,Svarthola/Vistehålå,Rogaland,geology,58.98729,5.59666,False,,,,,,False,0,5,0,False,,,,,,
p776,Mikaelshulen,Telemark,geology,59.21973,9.47586,False,,,,,,False,0,5,0,False,,,,,,
p777,Jarlshola,Trøndelag,geology,63.27644,10.26292,False,,,,,,False,0,5,0,False,,,,,,
p778,Radiohola,Vestland,geology,59.77959,5.80699,False,,,,,,False,0,5,0,False,,,,,,
p779,Mareminnehollet,Vestland,geology,60.40464,5.32241,False,,,,,,False,0,5,0,False,,,,,,
p780,Røverhulene,Akershus,geology,59.98166,10.90164,False,,,,,,False,0,5,0,False,,,,,,
p781,Milorghula,Süd-/Mittelnorwegen,geology,59.85348,10.8869,False,,,,,,False,0,5,0,False,,,,,,
p782,Kjerringhula,Süd-/Mittelnorwegen,geology,59.90158,10.85788,False,,,,,,False,0,5,0,False,,,,,,
p783,Wernerhula,Süd-/Mittelnorwegen,geology,59.9806,10.80639,False,,,,,,False,0,5,0,False,,,,,,
p784,Tolvmannshula,Süd-/Mittelnorwegen,geology,59.97756,10.79606,False,,,,,,False,0,5,0,False,,,,,,
p785,Finnpålstuggu,Trøndelag,geology,63.32315,10.6911,False,,,,,,False,0,5,0,False,,,,,,
p786,Sigurd Slembe hola,Vestland,geology,60.49316,5.26033,False,,,,,,False,0,5,0,False,,,,,,
p787,Svartahålå,Rogaland,geology,59.08149,5.61484,False,,,,,,False,0,5,0,False,,,,,,
p788,Grashålå,Rogaland,geology,58.97534,5.7477,False,,,,,,False,0,5,0,False,,,,,,
p789,Kjetil Rasks ur,Agder,geology,58.06761,8.00356,False,,,,,,False,0,5,0,False,,,,,,
p790,Ole Høylands hule,Agder,geology,58.23981,8.1176,False,,,,,,False,0,5,0,False,,,,,,
p791,Svarttjernsgrotta,Buskerud,geology,59.7712,10.03158,False,,,,,,False,0,5,0,False,,,,,,
p792,Tyskerhula,Buskerud,geology,59.60828,10.4032,False,,,,,,False,0,5,0,False,,,,,,
p793,Busopphola,Akershus,geology,59.93893,10.46433,False,,,,,,False,0,5,0,False,,,,,,
p794,Franskhellaren,Møre og Romsdal,geology,62.64428,6.52846,False,,,,,,False,0,5,0,False,,,,,,
p795,Hattehulene,Østfold,geology,59.26421,10.97853,False,,,,,,False,0,5,0,False,,,,,,
p796,MILORG Våpenlager fra 2.verdenskrig,Østfold,geology,59.20845,10.87048,False,,,,,,False,0,5,0,False,,,,,,
p797,Rottenikkens hule,Vestfold,geology,59.16251,10.23534,False,,,,,,False,0,5,0,False,,,,,,
p798,Bjødnahiet,Vestland,geology,60.64752,6.81724,False,,,,,,False,0,5,0,False,,,,,,
p799,Bjørnehulen,Østfold,geology,59.12114,11.22777,False,,,,,,False,0,5,0,False,,,,,,
p800,Smiehålå,Rogaland,geology,59.0157,6.28925,False,,,,,,False,0,5,0,False,,,,,,
p801,Røverhula,Vestfold,geology,59.45056,10.44786,False,,,,,,False,0,5,5,False,Lort2.JPG: L1: Unknown or restricted license: cc by-sa 3.0; Lort1.JPG: L1: Unknown or restricted license: cc by-sa 3.0; Lort3.JPG: L1: Unknown or restricted license: cc by-sa 3.0,,,,,
p802,Helleramshula,Buskerud,geology,60.1215,10.41451,False,,,,,,False,0,5,0,False,,,,,,
p803,Fleske-Lars' sommerhule,Buskerud,geology,60.13423,10.49864,False,,,,,,False,0,5,0,False,,,,,,
p804,Tjuvenborghula,Buskerud,geology,60.32921,9.97865,False,,,,,,False,0,5,0,False,,,,,,
p805,Milorghula – Lørenskog,Akershus,geology,59.92146,11.02483,False,,,,,,False,0,5,0,False,,,,,,
p806,Nilsehula,Süd-/Mittelnorwegen,geology,59.86398,10.9256,False,,,,,,False,0,5,0,False,,,,,,
p807,Gålo i Gullberg,Vestland,geology,59.77238,5.5136,False,,,,,,False,0,5,0,False,,,,,,
p808,Dragens hule,Telemark,geology,58.97817,9.33099,False,,,,,,False,0,5,0,False,,,,,,
p809,Lågåsmyrhelleren,Telemark,geology,58.83116,9.33573,False,,,,,,False,0,5,0,False,,,,,,
p810,Hestneshola,Trøndelag,geology,63.58991,8.5962,False,,,,,,False,0,5,0,False,,,,,,
p811,Holet,Møre og Romsdal,geology,62.30856,6.34589,False,,,,,,False,0,5,0,False,,,,,,
p812,Hedlebergshidleren,Vestland,geology,60.02334,5.86866,False,,,,,,False,0,5,0,False,,,,,,
p813,Tjuvolahula,Innlandet,geology,61.11481,10.80506,False,,,,,,False,0,5,0,False,,,,,,
p814,Veslegruva,Innlandet,geology,61.36273,9.64503,False,,,,,,False,0,5,0,False,,,,,,
p815,Solbergfoss,Østfold,dam,59.63766,11.15442,False,,,,,,False,0,5,0,False,,,,,,
p816,Zakkariasdammen,Møre og Romsdal,dam,62.20154,7.49024,False,,,,,,False,0,5,0,False,,,,,,
p817,Ringedalsdammen,Vestland,dam,60.12837,6.63757,False,,,,,,False,0,5,0,False,,,,,,
p818,Elvåga dam,Akershus,dam,59.88842,10.90953,False,,,,,,False,0,5,0,False,,,,,,
p819,Breisjødammene,Süd-/Mittelnorwegen,dam,59.97927,10.86607,False,,,,,,False,0,5,0,False,,,,,,
p820,Alunsjødammen,Süd-/Mittelnorwegen,dam,59.96636,10.859,False,,,,,,False,0,5,0,False,,,,,,
p821,Sandungsdammen,Süd-/Mittelnorwegen,dam,60.10795,10.66238,False,,,,,,False,0,5,0,False,,,,,,
p822,Myrdammen,Süd-/Mittelnorwegen,dam,60.08711,10.67705,False,,,,,,False,0,5,0,False,,,,,,
p823,Skådammen,Süd-/Mittelnorwegen,dam,60.03862,10.55381,False,,,,,,False,0,5,0,False,,,,,,
p824,Osdammen,Akershus,dam,59.96504,10.62347,False,,,,,,False,0,5,0,False,,,,,,
p825,Osen dam,Trøndelag,dam,63.39931,10.52423,False,,,,,,False,0,5,0,False,,,,,,
p826,Baklidammen,Trøndelag,dam,63.41848,10.32452,False,,,,,,False,0,5,0,False,,,,,,
p827,Kobberdammen,Trøndelag,dam,63.42283,10.28206,False,,,,,,False,0,5,0,False,,,,,,
p828,Holstdammen,Trøndelag,dam,63.44102,10.28925,False,,,,,,False,0,5,0,False,,,,,,
p829,Lykkjdammen,Trøndelag,dam,63.44706,10.30172,False,,,,,,False,0,5,0,False,,,,,,
p830,Nedrediket,Vestland,dam,60.40582,5.34724,False,,,,,,False,0,5,0,False,,,,,,
p831,Nyediket,Vestland,dam,60.40694,5.35049,False,,,,,,False,0,5,0,False,,,,,,
p832,Grotjønnstemmen,Agder,dam,58.1551,7.94357,False,,,,,,False,0,5,0,False,,,,,,
p833,Kloppavassteppinga,Møre og Romsdal,dam,62.80829,7.48724,False,,,,,,False,0,5,0,False,,,,,,
p834,Kleivdammen,Møre og Romsdal,dam,62.84196,8.11569,False,,,,,,False,0,5,0,False,,,,,,
p835,Flatsetdammen,Møre og Romsdal,dam,63.03788,7.77684,False,,,,,,False,0,5,0,False,,,,,,
p836,Storåna,Rogaland,dam,59.14787,6.60354,False,,,,,,False,0,5,0,False,,,,,,
p837,Svarkedammen,Innlandet,dam,60.96554,10.34041,False,,,,,,False,0,5,0,False,,,,,,
p838,Flisflodammen,Innlandet,dam,60.99778,12.08347,False,,,,,,False,0,5,0,False,,,,,,
p839,Høgåsdammen,Akershus,dam,59.90502,11.07121,False,,,,,,False,0,5,0,False,,,,,,
p840,Klasdammen,Akershus,dam,59.90196,11.08285,False,,,,,,False,0,5,0,False,,,,,,
p841,Skovholtdammen,Akershus,dam,59.89827,11.08383,False,,,,,,False,0,5,0,False,,,,,,
p842,Tunsbergdals dam,Vestland,dam,61.46689,7.18072,False,,,,,,False,0,5,2,False,Dam Tunsbergdalsvatn (1) 2025.jpg: L1: Unknown or restricted license: cc by-sa 4.0; Dam Tunsbergdalsvatn (3) 2025.jpg: L1: Unknown or restricted license: cc by-sa 4.0,,,,,
p843,Styggevassdammen,Vestland,dam,61.76327,7.46537,False,,,,,,False,0,5,5,False,P1000310 Styggevatnet.JPG: L1: Unknown or restricted license: cc by 3.0; P1000345Styggevatnet.JPG: L1: Unknown or restricted license: cc by 3.0; Styggevatnet 89 (2).JPG: L1: Unknown or restricted license: cc by-sa 4.0,,,,,
p844,Smådøla,Innlandet,dam,61.73506,8.92447,False,,,,,,False,0,5,0,False,,,,,,
p845,Camera Obscura,Trøndelag,geology,63.43444,10.40653,False,,,,,,False,0,5,0,False,,,,,,
p846,Jettegryter,Møre og Romsdal,geology,62.39427,8.35245,False,,,,,,False,0,5,0,False,,,,,,
p847,Jettegryter – Fredrikstad,Østfold,geology,59.21776,11.07908,False,,,,,,False,0,5,0,False,,,,,,
p848,Hunn (Steinringfeltet),Østfold,geology,59.21764,11.07646,False,,,,,,False,0,5,0,False,,,,,,
p849,Stalheimsfossen,Vestland,geology,60.83532,6.68694,False,,,,,,False,0,5,0,False,,,,,,
p850,KNM Utstein,Vestfold,geology,59.42576,10.48789,False,,,,,,False,0,5,0,False,,,,,,
p851,Steintippen,Akershus,geology,60.4331,11.34738,False,,,,,,False,0,5,0,False,,,,,,
p852,Jotulstein,Trøndelag,geology,63.53183,11.50851,False,,,,,,False,0,5,0,False,,,,,,
p853,Partisanersteinen,Buskerud,geology,60.35567,9.95718,False,,,,,,False,0,5,0,False,,,,,,
p854,Oddmundsteinen,Vestland,geology,59.99021,6.56461,False,,,,,,False,0,5,0,False,,,,,,
p855,Old Strynefjell Mountain Road,Vestland,geology,61.96135,7.38872,False,,,,,,False,0,5,0,False,,,,,,
p856,Hjørundfjorden,Møre og Romsdal,geology,62.22483,6.50666,False,,,,,,False,0,5,0,False,,,,,,
p857,Jettegryter – Sunndal,Møre og Romsdal,geology,62.51896,8.55142,False,,,,,,False,0,5,0,False,,,,,,
p858,Jettegryte,Møre og Romsdal,geology,62.54639,8.48939,False,,,,,,False,0,5,0,False,,,,,,
p859,Ritlandskrateret,Rogaland,geology,59.23501,6.43031,False,,,,,,False,0,5,0,False,,,,,,
p860,Jettegryter – Sør-Aurdal,Innlandet,geology,60.82916,9.33999,False,,,,,,False,0,5,0,False,,,,,,
p861,Syngjarstein,Rogaland,geology,58.49466,6.08793,False,,,,,,False,0,5,0,False,,,,,,
p862,Jettegryte – Kvinesdal,Agder,geology,58.34281,6.98472,False,,,,,,False,0,5,0,False,,,,,,
p863,Gloppedalsura,Rogaland,geology,58.76748,6.27844,False,,,,,,False,0,5,0,False,,,,,,
p864,Bruresteinen,Telemark,geology,59.25416,8.59163,False,,,,,,False,0,5,0,False,,,,,,
p865,Klovsteinen,Agder,geology,58.64765,6.74398,False,,,,,,False,0,5,0,False,,,,,,
p866,Jettegrytene,Telemark,geology,58.9499,8.37078,False,,,,,,False,0,5,0,False,,,,,,
p867,Jettegryte – Skien,Telemark,geology,59.2679,9.53508,False,,,,,,False,0,5,0,False,,,,,,
p868,Huk,Süd-/Mittelnorwegen,beach,59.89491,10.6755,False,,,,,,False,0,5,5,False,"1137 Fra Hukodden, Oslo, ca 1934 (8529814013).jpg: L1: Unknown or restricted license: cc by 2.0; Schiøtts vei.jpg: L1: Unknown or restricted license: cc by-sa 4.0; Dammanns vei.jpg: L1: Unknown or restricted license: cc by-sa 4.0",,,,,
p869,Fippeviga,Agder,beach,58.06577,7.81787,False,,,,,,False,0,5,0,False,,,,,,
p870,Braneset,Agder,beach,58.06871,7.81789,False,,,,,,False,0,5,0,False,,,,,,
p871,Saueviga,Agder,beach,58.06696,7.81746,False,,,,,,False,0,5,0,False,,,,,,
p872,Farvannet badeplass,Agder,beach,58.14139,7.85937,False,,,,,,False,0,5,0,False,,,,,,
p873,Klaveness Stranden,Akershus,beach,59.88147,10.59911,False,,,,,,False,0,5,0,False,,,,,,
p874,Vassløkka,Østfold,beach,59.13547,11.06523,False,,,,,,False,0,5,0,False,,,,,,
p875,Samhold,Østfold,beach,59.28203,11.01043,False,,,,,,False,0,5,0,False,,,,,,
p876,Humlekjærstranda,Østfold,beach,59.14574,11.03612,False,,,,,,False,0,5,0,False,,,,,,
p877,Korset,Østfold,beach,59.15641,11.03707,False,,,,,,False,0,5,0,False,,,,,,
p878,Storvika,Trøndelag,beach,63.47108,10.88092,False,,,,,,False,0,5,0,False,,,,,,
p879,Kollevåg badestrand,Vestland,beach,60.45109,5.11032,False,,,,,,False,0,5,0,False,,,,,,
p880,Kollavågen,Vestland,beach,60.44807,5.11624,False,,,,,,False,0,5,0,False,,,,,,
p881,Vesletjern badeplass,Akershus,beach,59.93458,10.96951,False,,,,,,False,0,5,0,False,,,,,,
p882,Raudøra,Trøndelag,beach,62.69765,9.39723,False,,,,,,False,0,5,0,False,,,,,,
p883,Sponavikjo Strand,Vestland,beach,59.77457,5.51506,False,,,,,,False,0,5,0,False,,,,,,
p884,Aslaksvikjo,Vestland,beach,59.78999,5.52234,False,,,,,,False,0,5,5,False,Stord kirke.jpg: L1: Unknown or restricted license: cc by-sa 3.0; Stord kyrkje-alter.JPG: L1: Unknown or restricted license: cc by-sa 3.0; Stord kyrkje Wilse.jpeg: L2: No metadata match found,,,,,
p885,Reksafjæra,Trøndelag,beach,63.6448,9.17257,False,,,,,,False,0,5,0,False,,,,,,
p886,Alværnbukta,Akershus,beach,59.8212,10.62148,False,,,,,,False,0,5,0,False,,,,,,
p887,Sørstrand,Akershus,beach,59.80218,10.60927,False,,,,,,False,0,5,0,False,,,,,,
p888,Midtsandtangen friluftsområde,Trøndelag,beach,63.43349,10.72705,False,,,,,,False,0,5,0,False,,,,,,
p889,Tjeldeneset,Møre og Romsdal,beach,62.31014,5.83648,False,,,,,,False,0,5,0,False,,,,,,
p890,Storsanden,Møre og Romsdal,beach,62.85614,7.93725,False,,,,,,False,0,5,0,False,,,,,,
p891,Horremstranda,Møre og Romsdal,beach,62.79798,6.84374,False,,,,,,False,0,5,0,False,,,,,,
p892,Lausundsanden,Møre og Romsdal,beach,62.60207,6.20008,False,,,,,,False,0,5,0,False,,,,,,
p893,Havsyn,Agder,viewpoint,58.20744,8.16549,False,,,,,,False,0,5,0,False,,,,,,
p894,Merkestrengen,Agder,viewpoint,58.22957,8.16076,False,,,,,,False,0,5,0,False,,,,,,
p895,Bustingen,Vestfold,viewpoint,59.32021,10.12466,False,,,,,,False,0,5,0,False,,,,,,
p896,Holtvollen,Trøndelag,viewpoint,63.43549,11.07969,False,,,,,,False,0,5,0,False,,,,,,
p897,Vollshaugen,Trøndelag,viewpoint,63.47388,11.01138,False,,,,,,False,0,5,0,False,,,,,,
p898,Svulluskaret,Trøndelag,viewpoint,63.38429,10.90969,False,,,,,,False,0,5,0,False,,,,,,
p899,Bruraskaret,Møre og Romsdal,viewpoint,62.48237,7.72182,False,,,,,,False,0,5,0,False,,,,,,
p900,Tarloysa,Møre og Romsdal,viewpoint,62.6322,7.58004,False,,,,,,False,0,5,0,False,,,,,,
p901,Vindsåshornet,Møre og Romsdal,viewpoint,62.08419,7.25602,False,,,,,,False,0,5,0,False,,,,,,
p902,Smørstakken,Vestland,viewpoint,60.56944,5.72978,False,,,,,,False,0,5,0,False,,,,,,
p903,Lysenuten,Rogaland,viewpoint,59.52757,5.90466,False,,,,,,False,0,5,0,False,,,,,,
p904,Myfallet – mittlerer Aussichtspunkt,Innlandet,viewpoint,61.64091,10.15261,False,,,,,,False,0,5,0,False,,,,,,
p905,Myfallet – unterer Aussichtspunkt,Innlandet,viewpoint,61.6403,10.15124,False,,,,,,False,0,5,0,False,,,,,,
p906,Myfallet – oberer Aussichtspunkt,Innlandet,viewpoint,61.64075,10.15313,False,,,,,,False,0,5,0,False,,,,,,
p907,Høgåsen,Innlandet,viewpoint,61.49377,10.42658,False,,,,,,False,0,5,0,False,,,,,,
p908,Finsådammen,Agder,viewpoint,58.66675,6.6953,False,,,,,,False,0,5,0,False,,,,,,
p909,Gloppefossen,Agder,viewpoint,59.28329,7.49023,False,,,,,,False,0,5,0,False,,,,,,
p910,Høgenut,Telemark,viewpoint,59.20581,8.04409,False,,,,,,False,0,5,0,False,,,,,,
p911,Ilene Fugletårn,Vestfold,viewpoint,59.27702,10.38337,False,,,,,,False,0,5,0,False,,,,,,
p912,Nieidagorži - Pikefossen,Finnmark,waterfall,69.30173,23.57701,False,,,,,,False,0,5,0,False,,,,,,
p913,Kalvedalsfossen,Troms,waterfall,69.76869,18.81586,False,,,,,,False,0,5,0,False,,,,,,
p914,Gamforsen,Nordland,waterfall,67.02962,15.08159,False,,,,,,False,0,5,0,False,,,,,,
p915,Valnesforsen,Nordland,waterfall,67.17218,14.44778,False,,,,,,False,0,5,0,False,,,,,,
p916,Durmålsfossen,Nordland,waterfall,67.19613,15.19956,False,,,,,,False,0,5,0,False,,,,,,
p917,Bartageavŋŋis,Finnmark,waterfall,68.8899,25.52693,False,,,,,,False,0,5,0,False,,,,,,
p918,Rohčiguoika,Finnmark,waterfall,68.96913,25.71199,False,,,,,,False,0,5,0,False,,,,,,
p919,Bajit Guorgu,Finnmark,waterfall,68.97885,25.7114,False,,,,,,False,0,5,0,False,,,,,,
p920,Fuldalsfossen,Trøndelag,waterfall,63.99817,11.96973,False,,,,,,False,0,5,0,False,,,,,,
p921,Svarvarfossen,Trøndelag,waterfall,63.97658,12.02776,False,,,,,,False,0,5,0,False,,,,,,
p922,Seterfossen,Trøndelag,waterfall,63.98137,11.70229,False,,,,,,False,0,5,0,False,,,,,,
p923,Skvallfossen,Trøndelag,waterfall,63.9906,11.64608,False,,,,,,False,0,5,0,False,,,,,,
p924,Moafossen,Trøndelag,waterfall,63.97691,11.92962,False,,,,,,False,0,5,0,False,,,,,,
p925,Andfinnfossen,Trøndelag,waterfall,63.97232,11.85502,False,,,,,,False,0,5,0,False,,,,,,
p926,Hyttfossen,Trøndelag,waterfall,63.98827,11.98288,False,,,,,,False,0,5,0,False,,,,,,
p927,Ormsetfossen,Trøndelag,waterfall,63.86674,10.69456,False,,,,,,False,0,5,0,False,,,,,,
p928,Lauvlifossen,Trøndelag,waterfall,63.87954,10.75153,False,,,,,,False,0,5,0,False,,,,,,
p929,Selforsen,Nordland,waterfall,66.33048,14.16973,False,,,,,,False,0,5,0,False,,,,,,
p930,Lillefossen,Finnmark,waterfall,70.18467,30.20637,False,,,,,,False,0,5,0,False,,,,,,
p931,Skallelvporten,Finnmark,waterfall,70.20588,30.19279,False,,,,,,False,0,5,0,False,,,,,,
p932,Falkorfossen,Finnmark,waterfall,70.18178,30.16555,False,,,,,,False,0,5,0,False,,,,,,
p933,Andrefossen,Finnmark,waterfall,70.13647,29.31222,False,,,,,,False,0,5,0,False,,,,,,
p934,Hengebrofossen,Finnmark,waterfall,70.08832,29.85976,False,,,,,,False,0,5,0,False,,,,,,
p935,Fjerdefossen,Finnmark,waterfall,70.1645,29.28945,False,,,,,,False,0,5,0,False,,,,,,
p936,Tredjefossen,Finnmark,waterfall,70.16136,29.30817,False,,,,,,False,0,5,0,False,,,,,,
p937,Førstefossen,Finnmark,waterfall,70.13303,29.31336,False,,,,,,False,0,5,0,False,,,,,,
p938,Benserafossen,Finnmark,waterfall,70.29223,30.99567,False,,,,,,False,0,5,0,False,,,,,,
p939,Næringsforsen,Finnmark,waterfall,70.43551,30.88922,False,,,,,,False,0,5,0,False,,,,,,
p940,Sagforsen,Nordland,waterfall,66.30103,13.64766,False,,,,,,False,0,5,0,False,,,,,,
p941,Bjynnhaugforsen,Nordland,waterfall,66.27233,13.51585,False,,,,,,False,0,5,0,False,,,,,,
p942,Skarforsen,Nordland,waterfall,66.31782,14.65028,False,,,,,,False,0,5,0,False,,,,,,
p943,Sprutforsen,Nordland,waterfall,66.25133,14.73828,False,,,,,,False,0,5,0,False,,,,,,
p944,Spruten,Nordland,waterfall,66.45429,14.79803,False,,,,,,False,0,5,0,False,,,,,,
p945,Agnetforsen,Nordland,waterfall,66.23443,14.12568,False,,,,,,False,0,5,0,False,,,,,,
p946,Holmfossen,Trøndelag,waterfall,63.67831,11.99301,False,,,,,,False,0,5,0,False,,,,,,
p947,Hærfossen,Trøndelag,waterfall,63.8068,11.86041,False,,,,,,False,0,5,0,False,,,,,,
p948,Kløftafossen,Trøndelag,waterfall,63.82906,12.20449,False,,,,,,False,0,5,0,False,,,,,,
p949,Granfossen,Trøndelag,waterfall,63.80585,11.93514,False,,,,,,False,0,5,0,False,,,,,,
p950,Nedre Markafossen,Trøndelag,waterfall,63.85151,11.70477,False,,,,,,False,0,5,0,False,,,,,,
p951,Hofossen,Trøndelag,waterfall,63.83204,11.50405,False,,,,,,False,0,5,0,False,,,,,,
p952,Vollafossen,Trøndelag,waterfall,63.8195,11.89071,False,,,,,,False,0,5,0,False,,,,,,
p953,Svartfossen,Trøndelag,waterfall,63.70609,11.6263,False,,,,,,False,0,5,0,False,,,,,,
p954,Sagholet,Trøndelag,waterfall,63.74432,11.69995,False,,,,,,False,0,5,0,False,,,,,,
p955,Rinnfossen,Trøndelag,waterfall,63.76004,11.45069,False,,,,,,False,0,5,0,False,,,,,,
p956,Lappgammforsen,Nordland,waterfall,67.32806,15.29021,False,,,,,,False,0,5,0,False,,,,,,
p957,Austerdalsforsen,Nordland,waterfall,67.39513,15.43846,False,,,,,,False,0,5,0,False,,,,,,
p958,Mølnforsen,Nordland,waterfall,67.34564,15.27943,False,,,,,,False,0,5,0,False,,,,,,
p959,Tjuvdalsforsen,Nordland,waterfall,67.34525,15.3266,False,,,,,,False,0,5,0,False,,,,,,
p960,Mølnfossen,Nordland,waterfall,67.40733,15.39232,False,,,,,,False,0,5,0,False,,,,,,
p961,Fridalforsen,Nordland,waterfall,67.39748,15.39377,False,,,,,,False,0,5,0,False,,,,,,
p962,Vullesámmolgorži,Finnmark,waterfall,68.80968,25.19554,False,,,,,,False,0,5,0,False,,,,,,
p963,Botnjegorži,Finnmark,waterfall,68.75723,25.12604,False,,,,,,False,0,5,0,False,,,,,,
p964,Gumpegorži,Finnmark,waterfall,68.87521,25.17896,False,,,,,,False,0,5,0,False,,,,,,
p965,Láillágorži,Finnmark,waterfall,69.1329,24.34683,False,,,,,,False,0,5,0,False,,,,,,
p966,Ceakkoguoika,Finnmark,waterfall,69.42657,24.29942,False,,,,,,False,0,5,0,False,,,,,,
p967,Ceakkoguoika – Kautokeino,Finnmark,waterfall,69.60821,24.31935,False,,,,,,False,0,5,0,False,,,,,,
p968,Šuorpmogorži,Finnmark,waterfall,69.14968,24.5359,False,,,,,,False,0,5,0,False,,,,,,
p969,Gievdneguoika,Finnmark,waterfall,69.19289,23.57461,False,,,,,,False,0,5,0,False,,,,,,
p970,Virdneguoika,Finnmark,waterfall,69.56398,23.73107,False,,,,,,False,0,5,0,False,,,,,,
p971,Holmfossen – Sør-Varanger,Finnmark,waterfall,69.53037,30.14543,False,,,,,,False,0,5,0,False,,,,,,
p972,Munkelvfossen,Finnmark,waterfall,69.58731,29.27913,False,,,,,,False,0,5,0,False,,,,,,
p973,Liafossen,Trøndelag,waterfall,63.80418,10.82507,False,,,,,,False,0,5,0,False,,,,,,
p974,Gammelkvennfossen,Trøndelag,waterfall,63.86981,9.96006,False,,,,,,False,0,5,0,False,,,,,,
p975,Hyllfossen,Trøndelag,waterfall,63.86528,9.94358,False,,,,,,False,0,5,0,False,,,,,,
p976,Perholfossen,Trøndelag,waterfall,63.82383,10.13229,False,,,,,,False,0,5,0,False,,,,,,
p977,Rostadforsen,Nordland,waterfall,67.97779,13.0411,False,,,,,,False,0,5,0,False,,,,,,
p978,Brufossan,Trøndelag,waterfall,64.3569,12.79032,False,,,,,,False,0,5,0,False,,,,,,
p979,Kråkselmyrfossan,Trøndelag,waterfall,64.25635,12.7932,False,,,,,,False,0,5,0,False,,,,,,
p980,Njallajåkgårttje,Nordland,waterfall,67.79983,16.5382,False,,,,,,False,0,5,0,False,,,,,,
p981,Dettforsen,Nordland,waterfall,67.66606,16.02735,False,,,,,,False,0,5,0,False,,,,,,
p982,Norges geografiske midtpunkt,Trøndelag,viewpoint,63.9906,12.30775,False,,,,,,False,0,5,0,False,,,,,,
p983,Mokk Gruver,Trøndelag,viewpoint,63.9646,12.13366,False,,,,,,False,0,5,0,False,,,,,,
p984,Watherfall,Trøndelag,viewpoint,63.97455,12.12007,False,,,,,,False,0,5,0,False,,,,,,
p985,Oftenåsen,Trøndelag,viewpoint,63.99358,11.53103,False,,,,,,False,0,5,0,False,,,,,,
p986,Prestefjellet,Finnmark,viewpoint,69.72037,30.06074,False,,,,,,False,0,5,0,False,,,,,,
p987,Jaras Gruppen utkikkspunkt,Trøndelag,viewpoint,64.66543,11.2153,False,,,,,,False,0,5,0,False,,,,,,
p988,Våttåheia,Trøndelag,viewpoint,64.18888,11.30006,False,,,,,,False,0,5,0,False,,,,,,
p989,Bjørumsklumpen,Trøndelag,viewpoint,64.47058,11.49623,False,,,,,,False,0,5,0,False,,,,,,
p990,Jakobselva bird hide,Finnmark,viewpoint,70.1156,29.31743,False,,,,,,False,0,5,0,False,,,,,,
p991,Melkevarden,Finnmark,viewpoint,70.07572,29.81574,False,,,,,,False,0,5,0,False,,,,,,
p992,Torsvarden,Finnmark,viewpoint,70.09665,29.81966,False,,,,,,False,0,5,0,False,,,,,,
p993,Birdwatching hide,Finnmark,viewpoint,70.39546,30.96259,False,,,,,,False,0,5,0,False,,,,,,
p994,Steilnes bird hide,Finnmark,viewpoint,70.36381,31.09479,False,,,,,,False,0,5,0,False,,,,,,
p995,Klondyke,Finnmark,viewpoint,70.3705,31.11635,False,,,,,,False,0,5,0,False,,,,,,
p996,Domen,Finnmark,viewpoint,70.32333,31.04061,False,,,,,,False,0,5,0,False,,,,,,
p997,Kausmofjæra fugletårn,Trøndelag,viewpoint,63.81311,11.43922,False,,,,,,False,0,5,0,False,,,,,,
p998,Verdalsraset,Trøndelag,viewpoint,63.79486,11.63164,False,,,,,,False,0,5,0,False,,,,,,
p999,Marsteinsvola,Trøndelag,viewpoint,63.86095,11.52448,False,,,,,,False,0,5,0,False,,,,,,
p1000,Porten,Trøndelag,viewpoint,63.75038,11.54315,False,,,,,,False,0,5,0,False,,,,,,
p1001,Høgkammen,Trøndelag,viewpoint,63.83774,11.42921,False,,,,,,False,0,5,0,False,,,,,,
p1002,Verdals geografiske midtpunkt,Trøndelag,viewpoint,63.78657,12.00674,False,,,,,,False,0,5,0,False,,,,,,
p1003,96-høyden,Finnmark,viewpoint,69.44884,29.92538,False,,,,,,False,0,5,0,False,,,,,,
p1004,Olstolen,Trøndelag,viewpoint,63.83756,11.4233,False,,,,,,False,0,5,0,False,,,,,,
p1005,IngjalshåLån,Trøndelag,viewpoint,63.90535,11.21718,False,,,,,,False,0,5,0,False,,,,,,
p1006,Drammen,Nordland,viewpoint,65.78989,12.61834,False,,,,,,False,0,5,0,False,,,,,,
p1007,Panorama,Nordland,viewpoint,65.84184,13.22886,False,,,,,,False,0,5,1,False,Panorama: L1: Unknown or restricted license: ,,,,,
p1008,Kaukarberget,Nordland,viewpoint,65.84656,13.21202,False,,,,,,False,0,5,0,False,,,,,,
p1009,On south island,Nordland,viewpoint,67.87644,12.97489,False,,,,,,False,0,5,0,False,,,,,,
p1010,Aussicht am See bei Å,Nordland,viewpoint,67.88188,12.97723,False,,,,,,False,0,5,0,False,,,,,,
p1011,Andstabben 512 m osl,Nordland,viewpoint,67.8775,12.95087,False,,,,,,False,0,5,0,False,,,,,,
p1012,kollfjelle,Nordland,viewpoint,67.90116,13.01547,False,,,,,,False,0,5,0,False,,,,,,
p1013,Sørvågen,Nordland,viewpoint,67.889,13.03016,False,,,,,,False,0,5,0,False,,,,,,
p1014,Reinehalsen,Nordland,viewpoint,67.92833,13.08436,False,,,,,,False,0,5,0,False,,,,,,
p1015,Preikstolen,Nordland,viewpoint,67.94025,13.08305,False,,,,,,False,0,5,0,False,,,,,,
p1016,Kings View,Finnmark,viewpoint,71.17094,25.78539,False,,,,,,False,0,5,0,False,,,,,,
p1017,Ettertanken,Nordland,viewpoint,67.5023,12.08079,True,commons_geosearch,https://upload.wikimedia.org/wikipedia/commons/3/39/Ettertanken%2C_R%C3%B8st_2024.jpg,https://upload.wikimedia.org/wikipedia/commons/thumb/3/39/Ettertanken%2C_R%C3%B8st_2024.jpg/500px-Ettertanken%2C_R%C3%B8st_2024.jpg,"https://commons.wikimedia.org/wiki/File:Ettertanken,_R%C3%B8st_2024.jpg","Ettertanken, Røst 2024.jpg",True,4.0,5,5,True,,cc0,True,True,,
p1018,Varde,Nordland,viewpoint,66.68857,13.76217,False,,,,,,False,0,5,3,False,Varde: L1: Unknown or restricted license: ; 9455Svaristen 2400.jpg: L1: Unknown or restricted license: cc by-sa 2.0; Engabreen Glacier (117052271).jpeg: L1: Unknown or restricted license: cc by 3.0,,,,,
p1019,Nonshaugen,Nordland,viewpoint,65.1102,12.51238,False,,,,,,False,0,5,0,False,,,,,,
p1020,Guristraumen,Nordland,viewpoint,65.70637,11.99239,False,,,,,,False,0,5,0,False,,,,,,
p1021,Laksforsen,Nordland,viewpoint,65.62465,13.29181,False,,,,,,False,0,5,0,False,,,,,,
p1022,Reinesaksla utsiktspunkt,Nordland,viewpoint,66.07111,12.72399,False,,,,,,False,0,5,0,False,,,,,,
p1023,Major Hyldmos Plass,Nordland,viewpoint,68.44028,17.46905,False,,,,,,False,0,5,0,False,,,,,,
p1024,Øvre Fjellheisstation,Nordland,viewpoint,68.42234,17.45669,False,,,,,,False,0,5,0,False,,,,,,
p1025,Krona,Trøndelag,viewpoint,64.51461,10.91269,False,,,,,,False,0,5,0,False,,,,,,
p1026,Hikkelen,Nordland,viewpoint,66.49054,12.08086,False,,,,,,False,0,5,0,False,,,,,,
p1027,Vattind,Trøndelag,viewpoint,65.07844,11.61195,False,,,,,,False,0,5,0,False,,,,,,
p1028,Silfar Canyon,Finnmark,viewpoint,70.36836,25.71317,False,,,,,,False,0,5,0,False,,,,,,
p1029,Blue Lake,Troms,viewpoint,69.73227,20.02513,False,,,,,,False,0,5,0,False,,,,,,
p1030,Rødhammaren,Troms,viewpoint,68.77799,16.18037,False,,,,,,False,0,5,0,False,,,,,,
p1031,Klungbakkan,Troms,viewpoint,68.77881,16.16868,False,,,,,,False,0,5,0,False,,,,,,
p1032,Aldon,Finnmark,viewpoint,70.18237,28.69538,False,,,,,,False,0,5,0,False,,,,,,
p1033,Biotope.no shelter,Finnmark,viewpoint,70.72961,29.37634,False,,,,,,False,0,5,0,False,,,,,,
p1034,Henrikkafosen – Aussichtspunkt,Troms,viewpoint,68.71514,17.84703,False,,,,,,False,0,5,5,False,Trosen from Spanstinden.jpg: L1: Unknown or restricted license: cc by 4.0; Saraelva upstream from Henrikkafossen 2.jpg: L1: Unknown or restricted license: cc by 4.0; Saraelva upstream from Henrikkafossen 1.jpg: L1: Unknown or restricted license: cc by 4.0,,,,,
p1035,Bokkhaugen,Trøndelag,viewpoint,63.67638,11.32774,False,,,,,,False,0,5,0,False,,,,,,
p1036,Birdwatching spot,Trøndelag,viewpoint,63.70382,11.14545,False,,,,,,False,0,5,0,False,,,,,,
p1037,Stor-Kappa,Finnmark,viewpoint,71.16444,25.79778,False,,,,,,False,0,5,0,False,,,,,,
p1038,Nordkapp,Finnmark,viewpoint,71.16913,25.76078,False,,,,,,False,0,5,0,False,,,,,,
p1039,Segla – Aussichtspunkt am Parkplatz,Troms,viewpoint,69.47013,17.56588,False,,,,,,False,0,5,0,False,,,,,,
p1040,Storsegla,Troms,viewpoint,69.50748,17.59552,False,,,,,,False,0,5,0,False,,,,,,
p1041,Rødstranda,Troms,beach,69.50412,19.70767,False,,,,,,False,0,5,0,False,,,,,,
p1042,Hjellnessand,Troms,beach,69.60725,19.74365,False,,,,,,False,0,5,0,False,,,,,,
p1043,Sandvika,Troms,beach,69.63569,17.96862,False,,,,,,False,0,5,0,False,,,,,,
p1044,Barsvika,Troms,beach,69.63399,17.97388,False,,,,,,False,0,5,0,False,,,,,,
p1045,Fjøsvalen,Troms,beach,69.63432,17.97869,False,,,,,,False,0,5,0,False,,,,,,
p1046,Adamsanden,Troms,beach,69.61227,19.78105,False,,,,,,False,0,5,0,False,,,,,,
p1047,Gjellvika,Troms,beach,69.62087,18.06811,False,,,,,,False,0,5,0,False,,,,,,
p1048,Nakkesanden,Troms,beach,69.78123,19.71848,False,,,,,,False,0,5,0,False,,,,,,
p1049,Mola - Moalut,Troms,beach,69.81578,19.67272,False,,,,,,False,0,5,0,False,,,,,,
p1050,Breiosen,Nordland,beach,67.27809,13.972,False,,,,,,False,0,5,0,False,,,,,,
p1051,Ausvika,Nordland,beach,67.33447,14.49182,False,,,,,,False,0,5,0,False,,,,,,
p1052,Kuttvågen,Nordland,beach,67.26887,13.9657,False,,,,,,False,0,5,0,False,,,,,,
p1053,Bremnesstranda,Nordland,beach,67.31973,14.45819,False,,,,,,False,0,5,0,False,,,,,,
p1054,Lathari,Finnmark,beach,69.98218,23.45359,False,,,,,,False,0,5,0,False,,,,,,
p1055,"Sortland, Risvatnet",Nordland,beach,68.64013,15.19555,False,,,,,,False,0,5,0,False,,,,,,
p1056,Vestersand,Finnmark,beach,69.97306,29.63244,False,,,,,,False,0,5,0,False,,,,,,
p1057,Hestbergfjurru,Trøndelag,beach,63.94896,11.246,False,,,,,,False,0,5,0,False,,,,,,
p1058,Gautviken Naturiststrand,Nordland,beach,65.94667,13.03681,False,,,,,,False,0,5,0,False,,,,,,
p1059,Vikbukta strand,Nordland,beach,68.192,13.53891,False,,,,,,False,0,5,0,False,,,,,,
p1060,Beian badestrand,Trøndelag,beach,63.65397,9.5703,False,,,,,,False,0,5,0,False,,,,,,
p1061,Bystranda,Trøndelag,beach,63.68455,9.66593,False,,,,,,False,0,5,0,False,,,,,,
p1062,Høybakken badestrand,Trøndelag,beach,63.73498,9.87405,False,,,,,,False,0,5,0,False,,,,,,
p1063,Mebostad badestrand,Trøndelag,beach,63.76779,9.785,False,,,,,,False,0,5,0,False,,,,,,
p1064,Austrått badestrand,Trøndelag,beach,63.69727,9.73953,False,,,,,,False,0,5,0,False,,,,,,
p1065,Sjøgata badestrand,Trøndelag,beach,63.72721,9.5926,False,,,,,,False,0,5,0,False,,,,,,
p1066,Likskjæret badestrand,Trøndelag,beach,63.72773,9.6051,False,,,,,,False,0,5,0,False,,,,,,
p1067,Rusasetvatnet flytebrygge,Trøndelag,beach,63.72321,9.71838,False,,,,,,False,0,5,0,False,,,,,,
p1068,Stranda under fjellet,Nordland,beach,68.24338,14.60479,False,,,,,,False,0,5,0,False,,,,,,
p1069,Rorvika,Nordland,beach,68.20359,14.2344,False,,,,,,False,0,5,0,False,,,,,,
p1070,Raen,Nordland,beach,67.97639,12.97212,False,,,,,,False,0,5,0,False,,,,,,
p1071,Hellsanden,Nordland,beach,67.83511,12.82111,False,,,,,,False,0,5,0,False,,,,,,
p1072,Buneset,Nordland,beach,67.97762,12.96298,False,,,,,,False,0,5,0,False,,,,,,
p1073,Horseid,Nordland,beach,68.0215,12.99537,False,,,,,,False,0,5,0,False,,,,,,
p1074,Kollvika,Nordland,beach,68.5524,14.62308,False,,,,,,False,0,5,0,False,,,,,,
p1075,Vallan,Nordland,beach,65.74986,12.39573,False,,,,,,False,0,5,0,False,,,,,,
p1076,Bankfjæra,Nordland,beach,68.41055,15.99745,False,,,,,,False,0,5,0,False,,,,,,
p1077,Punn Sanden,Nordland,beach,67.66017,12.62881,False,,,,,,False,0,5,0,False,,,,,,
p1078,Nordlandshagen,Nordland,beach,67.68415,12.65429,False,,,,,,False,0,5,0,False,,,,,,
p1079,Vassbotnet,Nordland,beach,66.74549,13.6776,False,,,,,,False,0,5,0,False,,,,,,
p1080,Hosnasanden,Trøndelag,beach,64.05307,9.94964,False,,,,,,False,0,5,0,False,,,,,,
p1081,Sannan,Trøndelag,beach,64.14442,10.15567,False,,,,,,False,0,5,0,False,,,,,,
p1082,Rullesteinsfjæra,Finnmark,beach,70.49848,28.07501,False,,,,,,False,0,5,0,False,,,,,,
p1083,Årdalssanden,Trøndelag,beach,65.04175,11.58046,False,,,,,,False,0,5,0,False,,,,,,
p1084,Tjeldnesbukta,Troms,beach,68.63056,15.83905,False,,,,,,False,0,5,0,False,,,,,,
p1085,Kråkskarvatnet,Troms,lake,69.65066,18.40589,False,,,,,,False,0,5,0,False,,,,,,
p1086,Litleskarvatnet - Gáranasjávri,Troms,lake,69.56176,19.31888,False,,,,,,False,0,5,0,False,,,,,,
p1087,Trollvatnet - Bávatjávri,Troms,lake,69.70397,19.45807,False,,,,,,False,0,5,0,False,,,,,,
p1088,Movikvatnet - Šlubbojávri,Troms,lake,69.7123,19.15238,False,,,,,,False,0,5,0,False,,,,,,
p1089,Reinvatnet,Troms,lake,69.74533,19.26529,False,,,,,,False,0,5,0,False,,,,,,
p1090,Bakvatnet - Skearranjávri,Troms,lake,69.75328,19.24844,False,,,,,,False,0,5,0,False,,,,,,
p1091,Søre Holmevatnet - Lágujávri,Troms,lake,69.70976,19.26489,False,,,,,,False,0,5,0,False,,,,,,
p1092,Nordre Holmevatnet - Suorgejávri,Troms,lake,69.72116,19.29116,False,,,,,,False,0,5,0,False,,,,,,
p1093,Hjørnevatnet,Troms,lake,69.79585,19.11116,False,,,,,,False,0,5,0,False,,,,,,
p1094,Kulivatnet,Troms,lake,69.76965,19.27674,False,,,,,,False,0,5,0,False,,,,,,
p1095,Nordre Reinvatn,Troms,lake,69.74703,19.27529,False,,,,,,False,0,5,0,False,,,,,,
p1096,Josvavatnet,Troms,lake,69.76962,19.47486,False,,,,,,False,0,5,0,False,,,,,,
p1097,Tindvatnet,Troms,lake,69.78544,19.0178,False,,,,,,False,0,5,0,False,,,,,,
p1098,Andrevatnet,Troms,lake,69.79858,19.15951,False,,,,,,False,0,5,0,False,,,,,,
p1099,Langvatnet - Hoavgajávri,Troms,lake,69.73293,19.27755,False,,,,,,False,0,5,0,False,,,,,,
p1100,Førstevatnet,Troms,lake,69.79181,19.16308,False,,,,,,False,0,5,0,False,,,,,,
p1101,Nordre Snyfjellvatnet,Troms,lake,69.73722,19.34381,False,,,,,,False,0,5,0,False,,,,,,
p1102,Heaikkaunnajávrrit,Troms,lake,69.70023,19.2471,False,,,,,,False,0,5,0,False,,,,,,
p1103,Tidelvvatnet,Troms,lake,69.76881,19.45838,False,,,,,,False,0,5,0,False,,,,,,
p1104,Kjoselvvatnet,Troms,lake,69.71955,19.13809,False,,,,,,False,0,5,0,False,,,,,,
p1105,Moldbakkvatnet,Troms,lake,69.72332,19.12975,False,,,,,,False,0,5,0,False,,,,,,
p1106,Kynnmovatnet,Troms,lake,69.76538,19.2605,False,,,,,,False,0,5,0,False,,,,,,
p1107,Skarvatnet,Troms,lake,69.7882,19.51168,False,,,,,,False,0,5,0,False,,,,,,
p1108,Seinesvatnet,Nordland,lake,67.2032,14.38668,False,,,,,,False,0,5,0,False,,,,,,
p1109,Osvatnet,Nordland,lake,67.17623,14.58992,False,,,,,,False,0,5,0,False,,,,,,
p1110,Innervatnet,Nordland,lake,67.06733,14.97981,False,,,,,,False,0,5,0,False,,,,,,
p1111,Yttervatnet,Nordland,lake,67.08435,15.06162,False,,,,,,False,0,5,0,False,,,,,,
p1112,Rundhågvatnet,Nordland,lake,67.15782,15.24091,False,,,,,,False,0,5,0,False,,,,,,
p1113,Lomtjønnan,Nordland,lake,67.53378,14.8822,False,,,,,,False,0,5,0,False,,,,,,
p1114,Pallvatnet,Nordland,lake,67.3045,14.40847,False,,,,,,False,0,5,0,False,,,,,,
p1115,Tjønna,Nordland,lake,67.19516,15.24212,False,,,,,,False,0,5,0,False,,,,,,
p1116,Vardhågvatnet,Nordland,lake,67.02098,15.028,False,,,,,,False,0,5,0,False,,,,,,
p1117,Foravatnet,Troms,lake,68.70794,16.56604,False,,,,,,False,0,5,0,False,,,,,,
p1118,Ålvatnet,Troms,lake,68.75124,16.4461,False,,,,,,False,0,5,0,False,,,,,,
p1119,Laksevannet - Geinnodatjávri,Finnmark,lake,69.93073,22.40542,False,,,,,,False,0,5,0,False,,,,,,
p1120,Bollovannet - Bollojávri - Pollojärvi,Finnmark,lake,69.86032,23.47227,False,,,,,,False,0,5,0,False,,,,,,
p1121,Vuolit Orvvošjávri,Finnmark,lake,69.77499,23.4307,False,,,,,,False,0,5,0,False,,,,,,
p1122,Gálbmejávri,Finnmark,lake,69.79825,22.54184,False,,,,,,False,0,5,0,False,,,,,,
p1123,Tverrelvvannet - Vuolit Doaresvuomejávri,Finnmark,lake,70.20198,23.55604,False,,,,,,False,0,5,0,False,,,,,,
p1124,Åsvatna - Čorrojávri,Finnmark,lake,69.76287,22.76671,False,,,,,,False,0,5,0,False,,,,,,
p1125,Rávdoluobbalat,Finnmark,lake,69.71566,22.71863,False,,,,,,False,0,5,0,False,,,,,,
p1126,Nallovarrevannet - Nállovárjávri,Finnmark,lake,69.83528,23.13006,False,,,,,,False,0,5,0,False,,,,,,
p1127,Bukselårvannet,Finnmark,lake,70.24588,30.11003,False,,,,,,False,0,5,0,False,,,,,,
p1128,Lille Ingersvannet,Finnmark,lake,70.06876,29.85551,False,,,,,,False,0,5,0,False,,,,,,
p1129,Varvatnet,Finnmark,lake,70.28522,30.86229,False,,,,,,False,0,5,0,False,,,,,,
p1130,Fløtatjønna,Nordland,lake,66.32517,14.43381,False,,,,,,False,0,5,0,False,,,,,,
p1131,Stamtjønna,Nordland,lake,66.34705,14.03062,False,,,,,,False,0,5,0,False,,,,,,
p1132,Brilltjønnan,Nordland,lake,66.38782,14.32732,False,,,,,,False,0,5,0,False,,,,,,
p1133,Hestholman,Nordland,lake,66.36268,13.41388,False,,,,,,False,0,5,0,False,,,,,,
p1134,Litlhøgsettjønna,Trøndelag,lake,63.97016,12.6449,False,,,,,,False,0,5,0,False,,,,,,
p1135,Valøyvatnet,Trøndelag,lake,63.6526,8.84842,False,,,,,,False,0,5,0,False,,,,,,
p1136,Stengvatnet,Nordland,lake,67.43672,15.33182,False,,,,,,False,0,5,0,False,,,,,,
p1137,Holmtjønna,Nordland,lake,67.42988,15.33248,False,,,,,,False,0,5,0,False,,,,,,
p1138,Pissvatnet,Nordland,lake,67.3107,15.40592,False,,,,,,False,0,5,0,False,,,,,,
p1139,Loavskajávri,Finnmark,lake,69.03431,23.23304,False,,,,,,False,0,5,0,False,,,,,,
p1140,Áhkkanasjávri,Finnmark,lake,69.01348,24.18571,False,,,,,,False,0,5,0,False,,,,,,
p1141,Bealgejávri,Finnmark,lake,69.49399,24.01994,False,,,,,,False,0,5,0,False,,,,,,
p1142,Gobba-Suolojávri,Finnmark,lake,69.50029,23.63675,False,,,,,,False,0,5,0,False,,,,,,
p1143,Luomejávri,Finnmark,lake,69.35178,23.46909,False,,,,,,False,0,5,0,False,,,,,,
p1144,Spielgasáiva,Finnmark,lake,69.21906,23.25858,False,,,,,,False,0,5,0,False,,,,,,
p1145,Rássášjávri,Finnmark,lake,69.21013,23.45873,False,,,,,,False,0,5,0,False,,,,,,
p1146,Stordammen,Finnmark,lake,69.00899,23.05222,False,,,,,,False,0,5,0,False,,,,,,
p1147,Uitojávri,Finnmark,lake,69.47732,23.69568,False,,,,,,False,0,5,0,False,,,,,,
p1148,Mihkkalaláttu,Finnmark,lake,69.0618,23.13549,False,,,,,,False,0,5,0,False,,,,,,
p1149,Divreláttu,Finnmark,lake,69.29986,22.91558,False,,,,,,False,0,5,0,False,,,,,,
p1150,Ájotluoppal,Finnmark,lake,69.47801,24.31631,False,,,,,,False,0,5,0,False,,,,,,
p1151,Steinholmvatnet,Finnmark,lake,69.62571,29.56863,False,,,,,,False,0,5,0,False,,,,,,
p1152,Store Skarvatnet,Finnmark,lake,69.6181,30.76723,False,,,,,,False,0,5,0,False,,,,,,
p1153,Stemtjønna,Nordland,lake,65.82034,13.0414,False,,,,,,False,0,5,0,False,,,,,,
